id	whg_pid	title	ccodes	lon	lat	added	matches
amh_201c	6598941	Anguilla, unnamed fort		-63.034773	18.231634	[{'id': 'wd:Q104534141', 'coordinates': [[-63.0348, 18.2316]]}]	wd:Q104534141;wd:Q104534141
amh_300c	6598942	Anthonio, fort 	TW	121.432971	25.17541	[]	wd:Q104534214
amh_138c	6598943	Arguin, unnamed fort		-16.447695	20.612005	[]	wd:Q104534095
amh_290c	6598944	Arraial do Bom Jesus, fort	BR	-34.930833	-8.056389	[]	wd:Q104534209
amh_554c	6598945	Bangkalan, fort	ID	112.75099	-7.02436	[]	
amh_186c	6598946	Barbuda, fort				[]	
amh_190c	6598947	Barcadera, fort				[]	
amh_79c	6598948	Barneveld, fort	ID	127.48187	-0.624048	[]	wd:Q104534056
amh_241c	6598949	Barretta, fort	BR	-34.881349	-8.091267	[]	wd:Q104534176
amh_8942c	6598950	Batavia, batterij 		129.869079	-4.518846	[]	wd:Q104534271
amh_16c	6598951	Batavia, kasteel	ID	106.811354	-6.127672	[]	wd:Q2586938
amh_8772c	6598952	Batavia, stadsmuur van	ID	106.80903	-6.12741	[]	wd:Q104534226
amh_286c	6598953	Batenburg, fort	ID	106.81437	-6.142628	[]	wd:Q104534207
amh_123c	6598954	Batenstein, fort	GH	-1.921191	4.821631	[]	wd:Q472588
amh_178c	6598955	Beekenburg, fort	CW	-68.861938	12.072513	[]	wd:Q5027351
amh_3c	6598956	Beeverwijk, fort		128.765269	-3.646295	[]	wd:Q104534005
amh_270c	6598957	Aan de baai, fort		-62.96666667	17.46666667	[]	wd:Q104534194
amh_140c	6598958	Aardenburgh, fort	AO	13.223051	-8.807725	[]	wd:Q1408988
amh_226c	6598959	Adriaensz., fort				[]	
amh_99c	6598960	Altingburg, fort	MY	101.244892	3.341437	[]	wd:Q104534073
amh_1c	6598961	Amersfoort, fort	ID	128.3	-3.55	[]	wd:Q104533993
amh_113c	6598962	Amsterdam, fort 	GH	-1.114697	5.182842	[]	wd:Q478784
amh_164c	6598963	Amsterdam, fort 	CW	-68.934204	12.104625	[]	wd:Q2424320
amh_2c	6598964	Amsterdam, fort 		128.083173	-3.582671	[]	wd:Q2651405
amh_281c	6598965	Amsterdam, fort 				[]	
amh_71c	6598966	Amsterdam, fort 	ID	124.9166667	1.533333333	[]	wd:Q104534050
amh_154c	6598967	Amsterdam, fort 		-74.013736	40.704014	[]	wd:Q104534105
amh_272c	6598968	Amsterdam, fort 		-62.992575	17.486185	[]	wd:Q104534503
amh_180c	6598969	Amsterdam, fort 		-63.059528	18.014832	[]	wd:Q104534481
amh_101c	6598970	Amsterdam, pakhuis 	TH	100.5	13.73333333	[]	wd:Q104534074
amh_260c	6598971	Andries, fort	GY	-57.51666667	6.266666667	[]	wd:Q104534189
amh_474c	6598972	Angke, fort	ID	106.775969	-6.143392	[]	wd:Q17507355
amh_182c	6598973	Bel Air, schietpost		-63.059275	18.027483	[]	wd:Q104534128
amh_13c	6598974	Belgica, fort 		129.898894	-4.526072	[]	wd:Q4982061
amh_90c	6598975	Belvidere, fort	ID	112.75	-7.233333333	[]	wd:Q104534066
amh_213c	6598976	Bennet, fort	TT	-60.78579	11.207319	[]	wd:Q104534153
amh_8867c	6598977	Bergen, fort	US	-74.066047	40.729412	[]	wd:Q104534244
amh_8781c	6598978	Beschermer, fort De 	ID	109.675787	-6.879292	[]	wd:Q104534235
amh_134c	6598979	Beschermingh, fort 	ID	108.594249	-6.746968	[]	wd:Q104534092
amh_9036c	6598980	Beversreede, fort	US	-75.21689	39.901858	[]	wd:Q2754717
amh_8887c	6598981	Beverwijck, fort 	US	-73.75082	42.648851	[]	wd:Q104534257
amh_128c	6598982	Blekenburg, fort				[]	
amh_244c	6598983	Bona Ventura, fort	BR	-35.4	-9.033333333	[]	wd:Q104534179
amh_271c	6598984	Bouillé, fort		-62.985121	17.474488	[]	wd:Q104534195
amh_258c	6598985	Brandwacht, fort 	GY	-57.6454	5.986284	[]	wd:Q104534188
amh_307c	6598986	Brandwagt, post 		-54.721986	5.981403	[]	wd:Q104534217
amh_8869c	6598987	Brooklyn, fort		-73.998355	40.69715	[]	wd:Q104534246
amh_228c	6598988	Brun, fort do	BR	-34.870863	-8.05286	[]	wd:Q104534164
amh_179c	6598989	Bullebaai, fort	CW	-69.01175	12.169736	[]	wd:Q104534125
amh_229c	6598990	Buraco, fort	BR	-34.88333333	-8.1	[]	wd:Q104534166
amh_252c	6598991	Burt, fort		-64.614539	18.4129	[]	wd:Q5470873
amh_184c	6598992	Cabajé, fort				[]	
amh_8919c	6598993	Camocim, fort				[]	
amh_285c	6598994	Carganto, fort	ID	120.185788	-5.555493	[]	wd:Q104534206
amh_109c	6598995	Carolina, fort	ID	120.19725	-5.557834	[]	wd:Q104534080
amh_144c	6598996	Carolusburg, fort	GH	-1.241147	5.103562	[]	wd:Q104534098
amh_185c	6598997	Carpata, fort		-68.352054	12.220083	[]	wd:Q104534130
amh_160c	6598998	Casimir, fort	US	-75.55914	39.663402	[]	wd:Q7886287
amh_217c	6598999	Catharina, fort		-34.840265	-6.969086	[]	wd:Q104534157
amh_30c	6599000	Ceith, fort 		128.02878	-3.59173	[]	wd:Q104534023
amh_222c	6599001	Ceulen, fort	BR	-35.194992	-5.756375	[]	wd:Q3304114
amh_51c	6599002	Chavonis, fort		18.421893	-33.90662	[]	wd:Q104534037
amh_191c	6599003	Chitchie, fort		-62.97929	17.468362	[]	wd:Q104534133
amh_158c	6599004	Christina, fort 	US	-75.538326	39.73744	[]	wd:Q2063470
amh_9220c	6599005	Cobo, fort		127.403805	0.757109	[]	wd:Q104534281
amh_193c	6599006	Coculusbaai, fort				[]	
amh_117c	6599007	Coenraadsburg, fort		-1.350873	5.084794	[]	wd:Q478471
amh_10310c	6599008	Collenburg, fort 		-68.830342	12.050862	[]	wd:Q104534288
amh_59c	6599009	Colombo, kasteel		79.84611111	6.934166667	[]	wd:Q104534043
amh_8866c	6599010	Communipaw, fort	US	-74.06668	40.713997	[]	wd:Q104534243
amh_157c	6599011	Compagniesfort Whorekill	US	-75.146304	38.779151	[]	wd:Q104534107
amh_262c	6599012	Concordia post, fort bij	GY	-57.5	5.716666667	[]	wd:Q104534190
amh_105c	6599013	Concordia, fort 		129.949438	-4.551057	[]	wd:Q104534078
amh_92c	6599014	Concordia, fort 		123.574844	-10.162786	[]	wd:Q10283788
amh_209c	6599015	Concordiabaai, fort		-62.973741	17.501282	[]	wd:Q104534149
amh_82c	6599016	Coornhoop, fort	ZA	18.472198	-33.939531	[]	wd:Q104534061
amh_208c	6599017	Corre Correbaai, fort		-62.946946	17.481401	[]	wd:Q104534148
amh_175c	6599018	Crabbebaai, fort		-69.150396	12.317944	[]	wd:Q104534122
amh_114c	6599019	Crevecoeur, fort		-0.20815	5.53865	[]	wd:Q2424003
amh_69c	6599020	Cronenburg, fort		100.566667	-1.35	[]	wd:Q104534048
amh_10535c	6599021	Dauphin, fort le 		-58.163586	6.822301	[]	wd:Q104534290
amh_11c	6599022	Defensie, fort	ID	127.11405	-3.38499	[]	wd:Q104534012
amh_108c	6599023	Defensie, fort 				[]	
amh_24c	6599024	Delfft, fort 		128.5972222	-3.562222222	[]	wd:Q104534018
amh_41c	6599025	Delfshaven, fort		127.151667	-8.074167	[]	wd:Q104534031
amh_8758c	6599026	Delft, fort 		128.62813	-3.58386	[]	wd:Q104534225
amh_10c	6599027	Den Bosch, fort		128.175644	-3.216483	[]	wd:Q104534011
amh_72c	6599028	Den Briel, fort 	ID	127.412445	-1.56926	[]	wd:Q104534051
amh_36c	6599029	Dender, fort		129.951917	-4.5352	[]	wd:Q104534028
amh_133c	6599030	Dieren, fort	ID	106.803393	-6.121332	[]	wd:Q104534091
amh_9025c	6599031	Dodinga, fort	ID	127.644875	0.857313	[]	wd:Q104534273
amh_198c	6599032	Dolin, fort		-62.96666667	17.46666667	[]	wd:Q104534138
amh_239c	6599033	Domburg, fort	BR	-34.959033	-8.372811	[]	wd:Q104534174
amh_73c	6599034	Doornenburg, fort		125.36057	2.745672	[]	wd:Q104534052
amh_146c	6599035	Dorothea, fort	GH	-2.03565	4.7526505	[]	wd:Q700023
amh_80c	6599036	Duinhoop, fort	ZA	18.465538	-33.919265	[]	wd:Q104534057
amh_4c	6599037	Duurstede, fort		128.65875	-3.57549	[]	wd:Q2433724
amh_234c	6599038	Effogados, fort de	BR	-34.88333333	-8.1	[]	wd:Q104534170
amh_8883c	6599039	Elfsborg, fort 	US	-75.52555	39.548333	[]	wd:Q104534253
amh_145c	6599040	Elise Carthago, fort	GH	-2.267565	4.893	[]	wd:Q104534100
amh_230c	6599041	Ernest, fort	BR	-34.876866	-8.060992	[]	wd:Q104534167
amh_8868c	6599042	Flatbush, fort	US	-73.959506	40.649832	[]	wd:Q104534245
amh_206c	6599043	Four Gun Battery		-62.987956	17.484059	[]	wd:Q104534146
amh_22c	6599044	Frederick, fort	LK	81.21666667	8.566666667	[]	wd:Q3070381
amh_232c	6599045	Frederik Hendrik, fort 	BR	-34.880868	-8.071758	[]	wd:Q104534169
amh_81c	6599046	Frederik Hendrik, fort 	MU	57.722747	-20.37521	[]	wd:Q104534059
amh_205c	6599047	Frederik, fort 		-62.971589	17.465262	[]	wd:Q104534145
amh_104c	6599048	Fredrik Hendrik, fort 		123.065811	-8.43478	[]	wd:Q104534077
amh_52c	6599049	Gelderland, fort 	IN	80.316321	13.4194	[]	wd:Q104534038
amh_10538c	6599050	Gelderland, fort 		-63.054875	18.044035	[]	wd:Q104534295
amh_148c	6599051	Goede Hoop, fort 	GH	-1.101812	5.186752	[]	wd:Q104534465
amh_121c	6599052	Goede Hoop, fort 	GH	-0.489729	5.387507	[]	wd:Q104534082
amh_15c	6599053	Goede Hoop, kasteel de 	ZA	18.427674	-33.925694	[]	wd:Q1049562
amh_53c	6599054	Goet Begin, fort	ID	110.639677	-6.891151	[]	wd:Q104534039
amh_54c	6599055	Goet Gevolgh, fort	ID	112.6333333	-7.2	[]	wd:Q104534040
amh_8926c	6599056	Goiana, fort	BR	-35.010723	-7.562803	[]	wd:Q104534264
amh_8862c	6599057	Governors Island, fort		-74.016175	40.69122	[]	wd:Q104534239
amh_166c	6599058	Graaf van Buren, fort 	CW	-68.913817	12.096563	[]	wd:Q104534113
amh_8864c	6599059	Gravesend, fort	US	-73.973545	40.595226	[]	wd:Q104534241
amh_8891c	6599060	Greenbush, fort 	US	-73.7494	42.634573	[]	wd:Q104534261
amh_119c	6599061	Groot Fredericksborg, fort	GH	-2.134009	4.791114	[]	wd:Q104534081
amh_298c	6599062	Groote Tanjong				[]	
amh_77c	6599063	Gustavus, fort	IN	88.391999	22.890784	[]	wd:Q98601402
amh_26c	6599064	Haarlem, fort 		127.968556	-3.641472	[]	wd:Q104534019
amh_110c	6599065	Halve maan, fort				[]	
amh_107c	6599066	Hammenhiel, fort		79.84794	9.71169	[]	wd:Q12973620
amh_512c	6599067	Hanwella, fort	LK	80.082369	6.909205	[]	wd:Q18708372
amh_94c	6599068	Hardenberg, fort		127.942815	-3.349778	[]	wd:Q104534069
amh_9037c	6599069	Harderwijk, fort		128.91686	-3.335951	[]	wd:Q104534274
amh_55c	6599070	Hersteller, fort	ID	110.504986	-7.325048	[]	wd:Q104534041
amh_34c	6599071	Hollandia, fort 		129.881002	-4.547392	[]	wd:Q104534027
amh_93c	6599072	Hollandia, fort 		128.68687	-3.583796	[]	wd:Q104534422
amh_197c	6599073	Hollandia, fort 		-62.992578	17.486233	[]	wd:Q104534137
amh_44c	6599074	Hollandia, fort 		127.388089	0.813967	[]	wd:Q1955002
amh_27c	6599075	Hoorn, fort 		128.472949	-3.51715	[]	wd:Q104534020
amh_279c	6599076	Huijs ter Hooge				[]	
amh_254c	6599077	Huis Nabij				[]	
amh_156c	6599078	Huis ter Hope, fort 	US	-72.7	41.75	[]	wd:Q104534106
amh_8892c	6599079	Hurley, fort	US	-74.061569	41.925741	[]	wd:Q104534262
amh_8754c	6599080	Indramayu, redoute	ID	108.354872	-6.306046	[]	wd:Q104534224
amh_46c	6599081	Jacatra, fort	ID	106.830611	-6.144628	[]	wd:Q104534033
amh_212c	6599082	Jacobus, fort	TT	-60.779901	11.221679	[]	wd:Q104534152
amh_8748c	6599083	Japara, fort	ID	110.666223	-6.585234	[]	wd:Q104534223
amh_8861c	6599084	Jemseg, fort	CA	-66.1	45.78333	[]	wd:Q3077893
amh_204c	6599085	Jenkinsbaai, fort		-62.999182	17.513695	[]	wd:Q104534144
amh_8918c	6599086	Jericoacoara, fort				[]	
amh_8935c	6599087	Jodenwacht, fort 	BR	-34.852994	-8.022379	[]	wd:Q104534266
amh_43c	6599088	Jonge Petrus Albertus, fort				[]	
amh_299c	6599089	Juffrouw de Bruyn	BR	-34.866887	-8.041521	[]	wd:Q104534213
amh_202c	6599090	Jussac, fort de		-62.993209	17.496002	[]	wd:Q104534142
amh_740c	6599091	Kajoe Meirah, fort	ID	127.372939	0.762256	[]	wd:Q2320942
amh_8778c	6599092	Kalimook, fort	ID	113.907134	-7.034753	[]	wd:Q104534233
amh_8756c	6599093	Kartasura, muren van	ID	110.740349	-7.55776	[]	
amh_129c	6599094	Keeten, fort	ID	106.791667	-6.166667	[]	wd:Q104534087
amh_235c	6599095	Kijck in de pot, fort 	BR	-34.88333333	-8.1	[]	wd:Q104534171
amh_312c	6599096	Kijck in de pot, fort 				[]	
amh_132c	6599097	Kijckuit, fort	ZA	18.485563	-33.890528	[]	wd:Q104534090
amh_8937c	6599098	Kijk in den Pot, fort 		129.884643	-4.534211	[]	wd:Q104534267
amh_8888c	6599099	Kinderhook, stenen fort bij	US	-73.781701	42.398651	[]	wd:Q104534258
amh_8889c	6599100	Kingston, fort	US	-74.018454	41.930867	[]	wd:Q104534259
amh_176c	6599101	Knipbaai, fort		-69.154564	12.346275	[]	wd:Q104534123
amh_283c	6599102	Knok, fort de	ZA	18.448593	-33.925606	[]	wd:Q104534203
amh_310c	6599103	Kostverlooren, fort				[]	
amh_8777c	6599104	Kota Lama, fort		134.21608	-5.70633	[]	wd:Q104534232
amh_149c	6599105	Kpone, fort bij	GH	0.062538	5.688875	[]	wd:Q104534103
amh_167c	6599106	Kreek, batterij de	CW	-68.95	12.11666667	[]	wd:Q104534114
amh_33c	6599107	Kuijlenburg, fort		129.942346	-4.521623	[]	wd:Q104534026
amh_294c	6599108	Kyk Overal, fort	GY	-58.614392	6.435315	[]	wd:Q2926371
amh_10536c	6599109	La Reine, batterij 	GY	-58.179284	6.808049	[]	wd:Q104534292
amh_8938c	6599110	Lakui, fort		129.879066	-4.553656	[]	wd:Q104534268
amh_214c	6599111	Lampsinsberg, fort		-60.71666667	11.16666667	[]	wd:Q104534154
amh_8939c	6599112	Landkasteel, fort 	BR	-34.871214	-8.057697	[]	wd:Q104534269
amh_8824c	6599113	Leiden, fort 	ID	122.914278	0.850631	[]	wd:Q104534236
amh_295c	6599114	Leyden, redoute 	SR	-55.130281	5.931657	[]	wd:Q104534211
amh_115c	6599115	Lijdzaamheid, fort 	GH	-0.72939	5.28532	[]	wd:Q954593
amh_100c	6599116	Lijdzaamheid, fort 	MZ	32.58333333	-25.96666667	[]	wd:Q23304558
amh_207c	6599117	Lucia, fort		-62.95663	17.492998	[]	wd:Q104534147
amh_28c	6599118	Lyden, fort 	ID	128.177993	-3.583504	[]	wd:Q104534021
amh_282c	6599119	Madasera, fort	IN			[]	
amh_61c	6599120	Mandasa, fort				[]	
amh_305c	6599121	Marbongh, fort zonder naam				[]	
amh_10542c	6599122	Maricary	BR	-50.439663	2.016647	[]	wd:Q104534297
amh_306c	6599123	Mariecque, fort		127.367427	0.669048	[]	wd:Q104534216
amh_8853c	6599124	Massapeage, fort 	US	-73.461068	40.652936	[]	wd:Q104534237
amh_103c	6599125	Mauritius, fort 		127.419944	0.36713	[]	wd:Q104534076
amh_249c	6599126	Maurits, fort 	BR	-36.584884	-10.292393	[]	wd:Q104534184
amh_8881c	6599127	Mecoponacka, fort	US	-75.383004	39.853623	[]	wd:Q104534251
amh_47c	6599128	Meester Cornelis, fort	ID	106.862536	-6.216072	[]	wd:Q2489986
amh_8c	6599129	Middelburg, fort 	ID	128.253834	-3.631033	[]	wd:Q104534009
amh_9203c	6599130	Middelpunt, fort 	ID	106.811134	-6.134643	[]	wd:Q104534279
amh_8880c	6599131	Middletown, fort		-73.989927	40.387036	[]	wd:Q104534250
amh_139c	6599132	Mols, fort	AO	13.122545	-9.280305	[]	wd:Q104534096
amh_303c	6599133	Monte Calvário, fort				[]	
amh_8934c	6599134	Montenegro, fort 	BR	-34.846329	-8.015844	[]	wd:Q10284250
amh_111c	6599135	Mosselstein, fort		50.33333333	29.23333333	[]	wd:Q2242122
amh_311c	6599136	Naos eiland, fort zonder naam				[]	
amh_152c	6599137	Nassau, fort 	US	-73.754613	42.635678	[]	wd:Q2256755
amh_227c	6599138	Nassau, fort 	BR	-52.268967	-1.54556	[]	wd:Q104534496
amh_14c	6599139	Nassau, fort 		129.897786	-4.52822	[]	wd:Q16773101
amh_261c	6599140	Nassau, fort 	GY	-57.66248	5.747458	[]	wd:Q3395011
amh_161c	6599141	Nassau, fort 	US	-75.127823	39.885965	[]	wd:Q104534477
amh_136c	6599142	Nassau, fort 		-17.400097	14.668659	[]	wd:Q104534459
amh_96c	6599143	Nassau, fort 		127.418606	0.478873	[]	wd:Q104534071
amh_124c	6599144	Nassau, fort 	GH	-1.2	5.13333	[]	wd:Q104534085
amh_192c	6599145	Nassau, fort 		-62.97977	17.46815	[]	wd:Q104534488
amh_304c	6599146	Nassauw, fort 				[]	
amh_200c	6599147	Natural fort		-63.251435	17.616814	[]	wd:Q104534140
amh_238c	6599148	Nazareth, fort	BR	-34.945059	-8.35855	[]	wd:Q104534173
amh_8871c	6599149	New Amsterdam City Hall		-74.010385	40.703365	[]	wd:Q104534248
amh_263c	6599150	Nieuw Amsterdam, fort 	SR	-55.091663	5.888229	[]	wd:Q2476520
amh_8870c	6599151	Nieuw Amsterdam, muren van		-74.011638	40.707643	[]	wd:Q104534247
amh_112c	6599152	Nieuw-Orangieën, fort				[]	
amh_245c	6599153	Nieuwe Kerk, fort	BR	-35.4	-9.033333333	[]	wd:Q104534180
amh_87c	6599154	Nieuwendam, fort				[]	
amh_9696c	6599155	Noord-Holland, fort		121.760687	25.15447	[]	wd:Q104534286
amh_218c	6599156	Noorderfort, fort 		-34.83793	-7.696304	[]	wd:Q104534158
amh_48c	6599157	Noordwijk, fort	ID	106.830599	-6.167893	[]	wd:Q104534034
amh_29c	6599158	Nootwijk, fort 	ID	128.185899	-3.697025	[]	wd:Q104534022
amh_278c	6599159	Nossa Senhora da Conceicao, fort		-34.858408	-7.808724	[]	wd:Q104534200
amh_247c	6599160	Nossa Senhora dos Remedios, fort		-32.41666667	-3.833333333	[]	wd:Q104534182
amh_256c	6599161	Nova Zeelandia, fort				[]	
amh_8882c	6599162	Nya Gothenborgh, fort 	US	-75.303351	39.854725	[]	wd:Q104534252
amh_159c	6599163	Nya Korsholm, fort	US	-75.212894	39.896528	[]	wd:Q104534108
amh_8884c	6599164	Nya, Vasa, fort 	US	-75.215746	39.913239	[]	wd:Q104534254
amh_8726c	6599165	Oma, fort 		128.432202	-3.628767	[]	wd:Q104534221
amh_8774c	6599166	Onrust, fort Eiland		106.734878	-6.033322	[]	wd:Q104534227
amh_12c	6599167	Ontmoeting, fort	ID	110.404703	-7.129309	[]	wd:Q104534013
amh_102c	6599168	Oosteinde, fort	ID	130.696396	-3.810367	[]	wd:Q104534075
amh_21c	6599169	Oostenburgh, fort		81.23361111	8.540277778	[]	wd:Q104534017
amh_141c	6599170	Orange, fort 		-17.398004	14.664596	[]	wd:Q100365641
amh_153c	6599171	Oranje, fort 	US	-73.750404	42.644629	[]	wd:Q693096
amh_211c	6599172	Oranje, fort 	BR	-52.235997	-1.740581	[]	wd:Q104534151
amh_221c	6599173	Oranje, fort 		-34.83914	-7.810281	[]	wd:Q1438646
amh_269c	6599174	Oranje, fort 		-62.986531	17.481968	[]	wd:Q2730234
amh_120c	6599175	Oranje, fort 		-1.707317	4.935696	[]	wd:Q2182050
amh_74c	6599176	Oranje, fort 		127.386719	0.792885	[]	wd:Q1954949
amh_9c	6599177	Overburg, fort		127.98198	-3.38981	[]	wd:Q104534010
amh_8872c	6599178	Oyster Bay, fort	US	-73.531093	40.87489	[]	wd:Q104534249
amh_302c	6599179	Padjajaram, fort				[]	
amh_203c	6599180	Panga, fort		-62.989206	17.494509	[]	wd:Q104534143
amh_264c	6599181	Para, fort	SR	-55.129291	5.748391	[]	wd:Q104534191
amh_242c	6599182	Paripueira, fort bij		-35.53333333	-9.466666667	[]	wd:Q104534177
amh_8859c	6599183	Pentagouet, fort		-68.803178	44.384758	[]	wd:Q682161
amh_126c	6599184	Philippina, fort		101.969427	2.386835	[]	wd:Q104534086
amh_130c	6599185	Philippina, fort 	ID	106.797367	-6.59901	[]	wd:Q104534454
amh_275c	6599186	Piet Heijn, fort	SR	-55.149493	5.955766	[]	wd:Q104534199
amh_181c	6599187	Pieter, batterij		-63.041314	18.016345	[]	wd:Q104534127
amh_83c	6599188	Pijl, fort				[]	wd:Q16314134
amh_173c	6599189	Piscaderisbaai, fort		-68.969243	12.121137	[]	wd:Q104534120
amh_8779c	6599190	Plered, muren van	ID	110.404455	-7.871111	[]	
amh_240c	6599191	Pontael, fort	BR	-34.95723	-8.363289	[]	wd:Q104534175
amh_174c	6599192	Porto Marie, fort	CW	-69.08581	12.220911	[]	wd:Q104534121
amh_8780c	6599193	Prins Hendrik, fort		104.439409	0.926535	[]	wd:Q104534234
amh_91c	6599194	Providentie, fort	ID	112.75	-7.233333333	[]	wd:Q104534067
amh_85c	6599195	Provintia, fort 	TW	120.20225	22.9971	[]	wd:Q714431
amh_168c	6599196	Punta Brava, batterij	CW	-68.95	12.11666667	[]	wd:Q104534115
amh_296c	6599197	Purmerend, redoute 	SR	-55.10821	5.877718	[]	wd:Q104534212
amh_9051c	6599198	Puwati, fort	ID	127.441676	0.336094	[]	wd:Q104534275
amh_49c	6599199	Quaal, fort	ID	106.695048	-6.036896	[]	wd:Q104534035
amh_8940c	6599200	Recife, Stadswal van	BR	-34.870917	-8.06153	[]	wd:Q104534270
amh_251c	6599201	Recovery, fort		-64.676015	18.386472	[]	wd:Q104534186
amh_8886c	6599202	Redoubt at the Fifth Kill, fort	US	-73.737372	42.659716	[]	wd:Q104534256
amh_8920c	6599203	Reis Magos, belegeringswerken tegen het fort van	BR	-35.198381	-5.758497	[]	wd:Q104534263
amh_8885c	6599204	Rensselaersstein, fort 	US	-73.78545	42.464333	[]	wd:Q104534255
amh_220c	6599205	Restinga, fort		-34.848731	-6.978686	[]	wd:Q104534160
amh_268c	6599206	Retrachement, fort het	CW	-68.91666667	12.11666667	[]	wd:Q104534193
amh_19c	6599207	Revenge, fort		129.773855	-4.518957	[]	wd:Q104534015
amh_9320c	6599208	Rijswijk, fort 	ID	106.818222	-6.164444	[]	wd:Q104534511
amh_50c	6599209	Rijswijk, fort 	ID	106.820411	-6.167444	[]	wd:Q104534036
amh_237c	6599210	Rio Formoso, fort aan	BR	-35.06666667	-8.583333333	[]	wd:Q104534172
amh_246c	6599211	Rio S. Francisco, wambuis	BR	-36.587631	-10.307066	[]	wd:Q104534181
amh_8890c	6599212	Rondout, fort 	US	-73.966001	41.927401	[]	wd:Q104534260
amh_5c	6599213	Rotterdam, fort 		127.932339	-3.749477	[]	wd:Q104534006
amh_60c	6599214	Rotterdam, fort 		119.405556	-5.13418	[]	wd:Q29771
amh_273c	6599215	Rotterdam, fort 		-62.992717	17.48653	[]	wd:Q104534197
amh_274c	6599216	Royale, fort		-62.99282	17.487566	[]	wd:Q104534198
amh_8951c	6599217	Rum, fort		127.386556	0.741806	[]	wd:Q104534272
amh_142c	6599218	Ruychaver, fort	GH	-2.2	5.033333333	[]	wd:Q104534097
amh_248c	6599219	S. Cristovão, fort bij	BR	-37.16666667	-10.98333333	[]	wd:Q104534183
amh_267c	6599220	S. Louis, fort 		-52.337361	4.937411	[]	wd:Q104534192
amh_9052c	6599221	Saboga, fort	ID	127.438666	1.135091	[]	wd:Q104534276
amh_250c	6599222	San Felipe del Morro, fort		-66.124184	18.471102	[]	wd:Q550502
amh_169c	6599223	Santa Anna's dorp, fort bij	CW	-68.91666667	12.11666667	[]	wd:Q104534116
amh_137c	6599224	Santa Cruz, fort	CW	-69.14838	12.305161	[]	wd:Q104534094
amh_219c	6599225	Sao Luis, fort	BR	-44.26666667	-2.566666667	[]	wd:Q104534159
amh_8860c	6599226	Schenectady, fort	US	-73.9712078	42.8233358	[]	wd:Q104534238
amh_210c	6599227	Schildpadsbaai, fort		-62.96666667	17.46666667	[]	wd:Q104534150
amh_224c	6599228	Schoonenburg, fort 	BR	-38.525358	-3.723003	[]	wd:Q104534162
amh_9224c	6599229	Semarang, verdedigingswerken van	ID	110.425665	-6.967491	[]	wd:Q104534282
amh_223c	6599230	Siara, fort 	BR	-38.595078	-3.706861	[]	wd:Q104534161
amh_9053c	6599231	Sidangoli, fort		127.501692	0.886364	[]	wd:Q104534277
amh_151c	6599232	Singelenburgh, fort	GH	0.993564	5.921362	[]	wd:Q1438675
amh_291c	6599233	Sint George, fort	BR	-34.871214	-8.057697	[]	
amh_183c	6599234	Slachtbaai, fort	NL	-68.36666667	12.26666667	[]	wd:Q104534129
amh_9321c	6599235	Slingerland, fort	ID	106.839583	-6.122075	[]	wd:Q104534284
amh_266c	6599236	Sommelsdijk, fort	SR	-54.865408	5.86199	[]	wd:Q2485319
amh_18c	6599237	Speelwijk, fort	ID	106.150679	-6.030973	[]	wd:Q104534014
amh_127c	6599238	St. Angelo, fort		75.371895	11.854216	[]	wd:Q2663176
amh_116c	6599239	St. Antonio, fort	GH	-2.2444	4.868	[]	wd:Q1998460
amh_118c	6599240	St. George, fort		-1.34808	5.082676	[]	wd:Q1438772
amh_177c	6599241	St. Michiel, fort		-68.999655	12.14362	[]	wd:Q104534124
amh_122c	6599242	St. Sebastian, fort	GH	-1.621061	5.029111	[]	wd:Q104534083
amh_98c	6599243	Starfort, fort	LK	80.53333333	5.95	[]	wd:Q104534072
amh_284c	6599244	Sterrenschans, fort 	ID	106.789771	-6.142521	[]	wd:Q104534204
amh_216c	6599245	Sterrenschans, fortje bij de Rode Klipbaai		-60.71666667	11.16666667	[]	wd:Q104534156
amh_215c	6599246	Sterreschans, fort 	TT	-60.734839	11.18337	[]	wd:Q104534155
amh_95c	6599247	Storm, fort 		129.920694	-4.566722	[]	wd:Q104534070
amh_243c	6599248	Suassy, fort	BR	-35.541698	-9.462312	[]	wd:Q104534178
amh_8757c	6599249	Surakarta, muren van	ID	110.827792	-7.578239	[]	
amh_42c	6599250	Surosowan, fort	ID	106.15561	-6.03814	[]	
amh_8865c	6599251	Swanendael, fort	US	-75.139055	38.77404	[]	wd:Q104534242
amh_736c	6599252	Tabanio, fort	ID	114.61094	-3.75847	[]	wd:Q51696483
amh_743c	6599253	Tabelolo, fort	ID	127.38749	0.277976	[]	wd:Q104534220
amh_76c	6599254	Tafasoho, fort		127.347302	0.328697	[]	wd:Q104534054
amh_9055c	6599255	Tahula, fort		127.442311	0.648137	[]	wd:Q104534278
amh_9219c	6599256	Takome, fort		127.314125	0.845452	[]	wd:Q104534280
amh_483c	6599257	Tangerang, fort	ID	106.629597	-6.174639	[]	
amh_8776c	6599258	Tatas, fort	ID	114.59003	-3.31911	[]	wd:Q104534231
amh_8775c	6599259	Tegal, fort	ID	109.13819	-6.85438	[]	wd:Q104534229
amh_280c	6599260	Tent Bay, oude fort		-63.25	17.61666667	[]	wd:Q104534201
amh_225c	6599261	Tocujos eiland, fort op				[]	
amh_189c	6599262	Tolcksburg, fort de	CW	-68.851	12.066479	[]	wd:Q104534132
amh_199c	6599263	Tommeldijk, fort		-62.999373	17.498247	[]	wd:Q104534139
amh_188c	6599264	Uitkijk, batterij		-68.861136	12.067865	[]	wd:Q104534131
amh_8739c	6599265	Utrecht, fort 	ID	114.379165	-8.213198	[]	wd:Q104534508
amh_106c	6599266	Utrecht, fort 	MY	101.2	3.4	[]	wd:Q104534079
amh_301c	6599267	Utrecht, redoute 		120.159716	22.999127	[]	wd:Q104534215
amh_163c	6599268	Vaersenbaai, fort	CW	-69.003912	12.160501	[]	wd:Q104534111
amh_253c	6599269	Valdivia, schans bij	CL	-73.25	-39.76666667	[]	wd:Q104534187
amh_45c	6599270	Valkenburg, fort 				[]	
amh_62c	6599271	Valkenburgh, fort 	ID	119.5833333	-4.983333333	[]	wd:Q104534044
amh_8773c	6599272	Vastenburg, fort 	ID	110.83132	-7.57201	[]	wd:Q34158
amh_57c	6599273	Veldwachter, fort	ID	110.6666667	-7.483333333	[]	wd:Q104534042
amh_31c	6599274	Velsen, fort		128.692449	-3.49844	[]	wd:Q104534024
amh_97c	6599275	Verwachting, fort de	ID	125.97989	-2.05539	[]	wd:Q2648495
amh_20c	6599276	Victoria, fort 	ID	128.182342	-3.69155	[]	wd:Q2488326
amh_65c	6599277	Victoria, fort 	IN			[]	
amh_9699c	6599278	Victoria, redoute 		121.76583	25.15818	[]	wd:Q104534287
amh_84c	6599279	Vijf Sinnen, fort	IN	79.83333333	10.75	[]	wd:Q104534062
amh_78c	6599280	Vijfhoek, fort	ID	106.7980555	-6.1424972	[]	wd:Q104534055
amh_8931c	6599281	Vila Velha, belegeringswerken bij		-34.85063	-7.805514	[]	wd:Q104534265
amh_32c	6599282	Vlissingen, fort 		127.910887	-3.648911	[]	wd:Q104534025
amh_659c	6599283	Voorburg, fort	ID	127.383903	0.800905	[]	wd:Q104534218
amh_37c	6599284	Voorzightigheid, fort		129.907494	-4.526872	[]	wd:Q104534029
amh_63c	6599285	Voorzorg, fort				[]	
amh_70c	6599286	Vredenborg, fort 	ID	100.15	-0.6	[]	wd:Q104534049
amh_125c	6599287	Vredenburg, fort 	GH	-1.466667	5.058333	[]	wd:Q2139666
amh_17c	6599288	Vredenburg, fort 	ID	110.366015	-7.800285	[]	wd:Q2551916
amh_66c	6599289	Vreede, fort 	IN			[]	
amh_25c	6599290	Vrydenburg, fort				[]	
amh_8863c	6599291	Wadsworth, fort		-74.0566666	40.605	[]	wd:Q104534240
amh_64c	6599292	Waekzaemheyd, fort				[]	
amh_231c	6599293	Waerdenburgh, fort 	BR	-34.876671	-8.055957	[]	wd:Q104534168
amh_6c	6599294	Wantrouw, fort 		127.5564	-3.33834	[]	wd:Q104534007
amh_165c	6599295	Waterfort, Punda	CW	-68.933545	12.103608	[]	wd:Q104534112
amh_9347c	6599296	Waterkasteel 	ID	106.806389	-6.115278	[]	wd:Q104534285
amh_292c	6599297	Waterkasteel, fort 	BR	-34.859039	-8.047047	[]	wd:Q104534210
amh_38c	6599298	Watervlied, fort				[]	
amh_172c	6599299	Westpunt, fort de		-69.152968	12.370149	[]	wd:Q104534119
amh_89c	6599300	Wilgenburg, fort	ID	106.838889	-6.141944	[]	wd:Q104534065
amh_67c	6599301	Wilhelmus, fort 		76.042137	10.525102	[]	wd:Q104534353
amh_39c	6599302	Wilhelmus, fort 		128.363814	-1.008201	[]	wd:Q104534030
amh_162c	6599303	Wilhelmus, fort 	US	-74.85583	40.083937	[]	wd:Q104534110
amh_170c	6599304	Wilschutsborg, fort	CW	-68.91666667	12.11666667	[]	wd:Q104534117
amh_194c	6599305	Windt, fort de		-62.963919	17.465722	[]	wd:Q104534135
amh_259c	6599306	Wironje kreek, redoute bij				[]	
amh_147c	6599307	Witsen, fort	GH	-1.75	4.916666667	[]	wd:Q5472362
amh_8771c	6599308	Yogyakarta, muren van Kraton	ID	110.35607	-7.81283	[]	
amh_131c	6599309	Zanthoop, fort	ZA	18.455422	-33.92548	[]	wd:Q104534089
amh_68c	6599310	Zeeborg, fort 		76.568086	8.881128	[]	wd:Q104534046
amh_287c	6599311	Zeeburg, redoute 		120.135285	23.020395	[]	wd:Q104534208
amh_255c	6599312	Zeelandia, fort 		-58.512973	6.779128	[]	wd:Q172962
amh_75c	6599313	Zeelandia, fort 		120.160903	23.0018	[]	wd:Q20706255
amh_7c	6599314	Zeelandia, fort 		128.417459	-3.60277	[]	wd:Q104534008
amh_150c	6599315	Zeelandia, fort 	BJ	2.35	6.366666667	[]	wd:Q172962
amh_265c	6599316	Zeelandia, fort 	SR	-55.149705	5.825188	[]	wd:Q656587
amh_40c	6599317	Zeezigt, fort 				[]	
amh_88c	6599318	Zevenhoek, fort				[]	
amh_86c	6599319	Zoutelande, fort	ID	106.7833333	-6.127636	[]	wd:Q104534063
amh_309c	6599320	Zoutman, fort		-70.035703	12.517824	[]	wd:Q610796
amh_1391p	6599321	Manieravare, fort				[]	
amh_1386p	6599322	Tanavare	LK			[]	
amh_1389p	6599323	Alicao				[]	
amh_1109p	6599324	's-Hertogenbosch	SR			[]	
amh_764p	6599325	Abanzee	GH	-1.095471	5.19421	[]	
amh_912p	6599326	Abaqua	GH	-2.2	5.033333333	[]	
amh_356p	6599327	Abobo	ID	128.789113	-3.692153	[]	wd:Q24344034
amh_837p	6599328	Abuga	IN			[]	
amh_313p	6599329	Accra	GH	-0.202777778	5.557777778	[]	wd:Q3761
amh_809p	6599330	Achchuveli	LK			[]	
amh_1958p	6599331	Adam's Peak	LK	80.499388	6.809622	[]	wd:Q60789
amh_314p	6599332	Aden	YE	45.034275	12.801758	[]	wd:Q131694
amh_553p	6599333	Adirogo	ID			[]	
amh_1039p	6599334	Affogados	BR	-34.909236	-8.073931	[]	
amh_935p	6599335	Agathon	NG			[]	
amh_916p	6599336	Aggia	GH	-1.101644	5.187628	[]	
amh_390p	6599337	Agra	IN	78.007708	27.179523	[]	wd:Q42941
amh_571p	6599338	Agter de Steenbergen aan Baaij Fals	ZA			[]	
amh_315p	6599339	Ahmadabad	IN	72.583809	23.048776	[]	wd:Q1070
amh_348p	6599340	Ai	ID	129.773569	-4.528169	[]	wd:Q2635206
amh_593p	6599341	Aijcotta	IN			[]	wd:Q4832541
amh_628p	6599342	Airbangis	ID	99.381609	0.197582	[]	wd:Q13486684
amh_626p	6599343	Airhaji	ID			[]	
amh_357p	6599344	Akoon	ID	128.810586	-3.675044	[]	wd:Q24344039
amh_497p	6599345	Akuressa	LK	80.477378	6.099975	[]	wd:Q27457433
amh_914p	6599346	Akwida	GH	-2.05	4.75	[]	
amh_615p	6599347	Al Basrah	IQ	47.83468	30.523193	[]	wd:Q48195
amh_613p	6599348	Al Mukha	YE	43.243425	13.319555	[]	wd:Q339258
amh_498p	6599349	Alandale	LK			[]	
amh_358p	6599350	Alang	ID	128.001916	-3.774846	[]	wd:Q17998010
amh_943p	6599351	Albany	US	-73.758945	42.649112	[]	
amh_925p	6599352	Allada	BJ	2.15116	6.665204	[]	
amh_594p	6599353	Alleppey	IN	76.32901	9.493297	[]	wd:Q585026
amh_766p	6599354	Alphen	ZA			[]	
amh_499p	6599355	Alvatier	LK			[]	
amh_10393p	6599356	Amazone		-50.910793	0.102459	[]	
amh_432p	6599357	Ambalangoda	LK	80.052799	6.23636	[]	wd:Q4740977
amh_359p	6599358	Ambelau	ID	127.189693	-3.843359	[]	wd:Q456775
amh_316p	6599359	Ambon	ID	128.1647222	-3.706666667	[]	wd:Q18970
amh_360p	6599360	Ameth	ID	128.805608	-3.647923	[]	wd:Q24340698
amh_1069p	6599361	Ampa	GY	-58.573229	6.497403	[]	
amh_1150p	6599362	Amsterdam	NL	4.899158	52.372874	[]	wd:Q727
amh_888p	6599363	Amsterdam eiland	TF	77.558556	-37.824972	[]	
amh_640p	6599364	Amurang	ID	124.598494	1.216301	[]	
amh_761p	6599365	An-Ping	TW	120.16561	22.996086	[]	
amh_832p	6599366	Analaitivu	LK	79.776335	9.670646	[]	wd:Q3523988
amh_473p	6599367	Ancol	ID	106.840832	-6.125194	[]	wd:Q4753096
amh_922p	6599368	Aneho	TG	1.590686	6.229811	[]	wd:Q1018574
amh_1009p	6599369	Anguilla	AI	-63.047848	18.219894	[]	wd:Q25228
amh_860p	6599370	Anjengo	IN	76.756085	8.672182	[]	wd:Q4752774
amh_913p	6599371	Ankobra	GH	-2.26438522	4.883333333	[]	wd:Q557411
amh_936p	6599372	Annobon	GQ	5.632496	-1.419494	[]	
amh_683p	6599373	Anomabu	GH	-1.2	5.13	[]	wd:Q567542
amh_1822p	6599374	Antananarivo	MG	47.53026	-18.911321	[]	wd:Q3915
amh_10273p	6599375	Antigua	AG	-61.80294	17.11951	[]	
amh_468p	6599376	Anyar	ID	105.92278	-6.052564	[]	wd:Q613898
amh_684p	6599377	Apam	GH	-0.74	5.28	[]	wd:Q617438
amh_1080p	6599378	Apoera	SR	-57.163203	5.162882	[]	wd:Q1318695
amh_1141p	6599379	Appa 1	BJ			[]	
amh_1120p	6599380	Approuague rivier	GF	4.0	-52.5	[]	wd:Q2314768
amh_794p	6599381	Appuratota	LK			[]	
amh_1076p	6599382	Aquewayse Post	GY	-57.956421	5.470414	[]	
amh_706p	6599383	Arakan	MM	93.192773	20.591128	[]	
amh_726p	6599384	Arandere	LK			[]	
amh_1059p	6599385	Arebo	NG			[]	
amh_927p	6599386	Arguin	MR	-16.462326	20.59133073	[]	
amh_1068p	6599387	Arinda	GY	-58.6124023	5.87216857	[]	
amh_500p	6599388	Arippu	LK	79.927593	8.793984	[]	wd:Q27447962
amh_1095p	6599389	Armina	GF			[]	
amh_1364p	6599390	Aruba	BQ;AW;CW;SX	-69.981766	12.522391	[]	
amh_746p	6599391	Asaudi	ID	127.959005	-3.108677	[]	
amh_840p	6599392	Ash Shihr	YE	49.606433	14.76318	[]	wd:Q286843
amh_855p	6599393	Ava	MM	96.016449	21.866876	[]	
amh_727p	6599394	Avissawella	LK	80.212616	6.951796	[]	wd:Q3537406
amh_685p	6599395	Axim	GH	-2.240038	4.871535	[]	wd:Q792509
amh_722p	6599396	Aynamaka	IN			[]	
amh_377p	6599397	Ayutthaya	TH	100.577245	14.355202	[]	wd:Q4831587
amh_9626p	6599398	Azoren	PT	-28.373807	38.50223	[]	
amh_10417p	6599399	Baai van Boina	MG	45.980684	-15.835705	[]	
amh_10498p	6599400	Baai van Caledonië	PA	-77.643171	8.83436	[]	
amh_414p	6599401	Babahan	ID			[]	
amh_413p	6599402	Babakan	ID			[]	
amh_451p	6599403	Babar	ID	129.694928	-7.897332	[]	
amh_654p	6599404	Bacan	ID	127.42555	-0.419537	[]	
amh_1000p	6599405	Back Off Bay	BQ;AW;CW;SX	-62.964268	17.465236	[]	
amh_926p	6599406	Badagri	NG	2.882094	6.415187	[]	wd:Q798812
amh_750p	6599407	Baghdad	IQ	44.43333333	33.33333333	[]	wd:Q1530
amh_10257p	6599408	Bahama's	BS	-77.893559	24.58799	[]	
amh_841p	6599409	Bahrein	BH			[]	
amh_793p	6599410	Baipar	IN			[]	
amh_488p	6599411	Baleshwar	IN	86.930666	21.493644	[]	wd:Q641098
amh_762p	6599412	Baliapal	IN	87.279797	21.651365	[]	
amh_361p	6599413	Balsetoe	ID			[]	
amh_751p	6599414	Band-e Kong	IR	54.938321	26.597507	[]	
amh_710p	6599415	Banda Aceh	ID	95.314264	5.557557	[]	
amh_416p	6599416	Banda Lontar	ID	129.879338	-4.546629	[]	wd:Q2658452
amh_349p	6599417	Bandanaira	ID	129.902759	-4.526458	[]	wd:Q1534265
amh_617p	6599418	Bandar-e Abbas	IR	56.275485	27.178951	[]	wd:Q154814
amh_1164p	6599419	Bandremoele	LK			[]	
amh_383p	6599420	Bandung	ID	107.609875	-6.913689	[]	wd:Q10389
amh_642p	6599421	Banggai	ID	123.558311	-1.611345	[]	
amh_1195p	6599422	Bangka, eiland	ID	106.006101	-2.281291	[]	wd:Q188428
amh_755p	6599423	Bangkok	TH	100.5	13.73333333	[]	wd:Q1861
amh_352p	6599424	Banjarmasin	ID	114.591079	-3.319189	[]	wd:Q14182
amh_476p	6599425	Banjoewangie 	ID			[]	
amh_586p	6599426	Bantaeng	ID	119.949625	-5.546408	[]	wd:Q25197744
amh_317p	6599427	Banten	ID	106.194162	-6.027384	[]	wd:Q2086056
amh_852p	6599428	Banyuwangi	ID	114.373333	-8.208984	[]	wd:Q11067
amh_777p	6599429	Barahanagar	IN	88.372171	22.640987	[]	wd:Q712504
amh_988p	6599430	Barbara Strand	BQ;AW;CW;SX	-68.85	12.06666667	[]	wd:Q1884833
amh_989p	6599431	Barbudo	BQ;AW;CW;SX			[]	
amh_992p	6599432	Barcadera	BQ;AW;CW;SX			[]	
amh_627p	6599433	Barus	ID	98.413782	2.018663	[]	wd:Q2886206
amh_1096p	6599434	Batavia 	SR	-55.876125	5.71186	[]	wd:Q1135383
amh_425p	6599435	Bato Tulis	ID			[]	
amh_555p	6599436	Batoe Oelo	ID			[]	
amh_434p	6599437	Batticaloa	LK	81.697875	7.711555	[]	wd:Q1849425
amh_587p	6599438	Baubau	ID	122.596772	-5.460973	[]	wd:Q15378
amh_556p	6599439	Bawean	ID	112.636242	-5.808658	[]	wd:Q812044
amh_475p	6599440	Bekasi	ID	106.99271	-6.089691	[]	wd:Q6517396
amh_1155p	6599441	Bellepatnam	IN			[]	
amh_937p	6599442	Benguela	AO	13.400738	-12.577769	[]	
amh_951p	6599443	Benin City	NG	5.622658	6.332872	[]	
amh_502p	6599444	Bentota	LK	79.998829	6.420475	[]	wd:Q4890663
amh_10282p	6599445	Bequia		-61.23144	13.010437	[]	wd:Q257857
amh_9425p	6599446	Berbice	GY	-57.516343	6.244121	[]	
amh_10140p	6599447	Berg en Dal	SR	-55.068749	5.137209	[]	
amh_950p	6599448	Bergen	US	-74.13333333	40.65	[]	wd:Q120503
amh_530p	6599449	Betaal	LK	79.874857	6.979985	[]	
amh_686p	6599450	Beyin	GH	-2.645481	5.000744	[]	wd:Q4899870
amh_1765p	6599451	Bhadrackh	IN	86.6	21.08333333	[]	
amh_675p	6599452	Bhaij Fals	ZA			[]	
amh_623p	6599453	Bharuch	IN	72.99963	21.713258	[]	wd:Q760153
amh_1769p	6599454	Bijapur	IN	75.8	16.78333333	[]	wd:Q4691355
amh_584p	6599455	Bima	ID	118.726058	-8.454459	[]	wd:Q12473568
amh_542p	6599456	Bimlipatam	IN	83.451608	17.88664	[]	wd:Q2483868
amh_643p	6599457	Bintauna	ID	123.4552969	0.880588	[]	
amh_1013p	6599458	Black Rock	TT	-60.782701	11.207113	[]	
amh_9744p	6599459	Bloedfort	CW	-68.931015	12.110567	[]	
amh_679p	6599460	Bloemfontein	ZA	26.216667	-29.116667	[]	wd:Q181439
amh_10572p	6599461	Boano	ID	127.912415	-2.959174	[]	
amh_423p	6599462	Bogor	ID	106.792724	-6.589965	[]	wd:Q10393
amh_1041p	6599463	Bom Jesus	BR			[]	
amh_858p	6599464	Bommelshoek	ZA			[]	
amh_379p	6599465	Booi	ID	128.661869	-3.609949	[]	wd:Q12477084
amh_469p	6599466	Borne	ID			[]	
amh_1119p	6599467	Borslem Island	GY	-58.216946	6.599173	[]	wd:Q25249086
amh_845p	6599468	Boshof	ZA			[]	
amh_987p	6599469	Bottom, The	BQ;AW;CW;SX	-63.249335	17.626272	[]	
amh_608p	6599470	Boucquetchina	MY			[]	
amh_557p	6599471	Boyolali	ID	110.6666667	-7.483333333	[]	wd:Q10609
amh_1097p	6599472	Brandwacht	SR			[]	
amh_558p	6599473	Brebes	ID	109.036546	-6.86678	[]	wd:Q10953943
amh_960p	6599474	Brooklyn	US	-73.996444	40.697056	[]	wd:Q72912
amh_570p	6599475	Buffeljagsrivier	ZA	20.534277	-34.045406	[]	wd:Q4787901
amh_698p	6599476	Buitenverwachting	ZA			[]	
amh_978p	6599477	Bullenbaai	BQ;AW;CW;SX	-69.023337	12.194821	[]	wd:Q4996757
amh_585p	6599478	Bulukumba	ID	120.195572	-5.552431	[]	wd:Q864969
amh_834p	6599479	Bungku	ID	121.972089	-2.544815	[]	wd:Q4196210
amh_645p	6599480	Buol	ID			[]	
amh_772p	6599481	Burhanpur	IN	76.228623	21.310086	[]	wd:Q593193
amh_967p	6599482	Burlington Island	US	-74.845698	40.092124	[]	
amh_362p	6599483	Buru	ID	126.721344	-3.354405	[]	wd:Q271030
amh_616p	6599484	Bushehr	IR	50.830904	28.990874	[]	wd:Q158928
amh_958p	6599485	Bushwick	US	-73.921473	40.695607	[]	wd:Q2288728
amh_687p	6599486	Butri	GH	-1.939455	4.803371	[]	
amh_993p	6599487	Cabajé	BQ;AW;CW;SX			[]	
amh_1027p	6599488	Cabedelo	BR	-34.834864	-6.970049	[]	wd:Q986350
amh_941p	6599489	Cabinda	AO	12.189624	-5.554097	[]	
amh_1042p	6599490	Cabo de Santo Agostinho	BR	-8.266666667	-35.0	[]	wd:Q1637538
amh_1019p	6599491	Cajamue eiland	BR	-52.333097	-1.598834	[]	
amh_1188p	6599492	Calamatta	ID			[]	
amh_318p	6599493	Calicut	IN	75.777161	11.258004	[]	wd:Q28729
amh_10243p	6599494	Callao	PE	-77.142269	-12.04994	[]	wd:Q105037
amh_605p	6599495	Callewette	IN	76.251547	9.967371	[]	
amh_1060p	6599496	Cambamba	AO	14.484101	-9.748454	[]	
amh_424p	6599497	Campong Baro	ID			[]	
amh_9625p	6599498	Canarische Eilanden	IC	-16.482812	28.387403	[]	wd:Q5813
amh_319p	6599499	Cannanore	IN	75.373564	11.87827	[]	wd:Q33428416
amh_688p	6599500	Cape Coast	GH	-1.2405	5.105	[]	
amh_503p	6599501	Cape Comorin	IN	77.549644	8.07988	[]	wd:Q946721
amh_320p	6599502	Cape Town	ZA	18.42355	-33.925628	[]	wd:Q5465
amh_985p	6599503	Caracasbaai	BQ;AW;CW;SX	-68.861652	12.073588	[]	wd:Q531980
amh_489p	6599504	Cariemabaath	IN			[]	
amh_472p	6599505	Carita	ID			[]	wd:Q13547638
amh_911p	6599506	Carresoela	ID			[]	
amh_1067p	6599507	Cartabo	GY			[]	
amh_9137p	6599508	Cassewinica kreek	SR	-54.883897	5.856026	[]	wd:Q32589404
amh_649p	6599509	Castela	ID	127.324626	0.755717	[]	wd:Q17052192
amh_848p	6599510	Castella	IN			[]	
amh_1056p	6599511	Castro	CL	-73.763841	-42.482115	[]	wd:Q3744
amh_9809p	6599512	Caswienica 	SR	-54.806676	5.502703	[]	
amh_9919p	6599513	Caswinika rivier	SR	-54.637111	5.714279	[]	
amh_1124p	6599514	Cayenne	GF	-52.33278	4.935929	[]	
amh_1064p	6599515	Cayouni rivier, post aan de	GY			[]	
amh_9899p	6599516	Ceder kreek	SR	-54.905192	5.724008	[]	wd:Q32610621
amh_452p	6599517	Celam	ID			[]	wd:Q14917461
amh_810p	6599518	Chankanai	LK	79.98333333	9.75	[]	wd:Q5072198
amh_495p	6599519	Chapra	IN	84.727764	25.781344	[]	wd:Q1755440
amh_1114p	6599520	Charlotte Amelia	VI	-64.933076	18.341898	[]	
amh_1085p	6599521	Charlotteville	TT	-60.551364	11.318933	[]	wd:Q1067459
amh_811p	6599522	Chavakachcheri	LK	80.162637	9.659646	[]	wd:Q1068504
amh_596p	6599523	Chendamangalam	IN	76.230737	10.162504	[]	wd:Q886578
amh_531p	6599524	Chilaw	LK	79.793086	7.576925	[]	wd:Q2495639
amh_1055p	6599525	Chiloè Island	CL	-42.66666667	-74.0	[]	wd:Q177608
amh_833p	6599526	Chinco	ID	100.559646	-1.353306	[]	
amh_730p	6599527	Chinnecallette Delle	LK			[]	
amh_1767p	6599528	Chittagong	BD	91.825347	22.327767	[]	wd:Q1122278
amh_597p	6599529	Chowghat	IN	76.018939	10.580803	[]	
amh_1115p	6599530	Christiansted	VI	-64.704008	17.74509	[]	wd:Q994719
amh_321p	6599531	Chunchura	IN	88.401647	22.890013	[]	wd:Q60616516
amh_812p	6599532	Chundikkulam	LK	80.58333333	9.45	[]	wd:Q4518081
amh_877p	6599533	Cibinong	ID			[]	
amh_408p	6599534	Cilincing	ID			[]	
amh_407p	6599535	Cipanas	ID			[]	wd:Q12479219
amh_406p	6599536	Cipir/Pulau Kahyangan	ID			[]	wd:Q2109138
amh_354p	6599537	Cirebon	ID	108.566244	-6.716182	[]	wd:Q10395
amh_874p	6599538	Cisarua	ID			[]	
amh_572p	6599539	Clapmuts	ZA	18.865142	-33.808178	[]	wd:Q2788523
amh_9069p	6599540	Clevia Plantage	SR	-55.11325	5.868061	[]	
amh_322p	6599541	Cochin	IN	76.258793	9.939431	[]	wd:Q1800
amh_889p	6599542	Cocos eilanden	CC			[]	
amh_1001p	6599543	Coculusbaai	BQ;AW;CW;SX	-62.999674	17.519577	[]	
amh_9826p	6599544	Coermotibo 	SR	-54.3640838	5.708603685	[]	
amh_9864p	6599545	Coesowinie rivier	GY	-57.405462	5.631619	[]	
amh_388p	6599546	Colesberg	ZA	25.097744	-30.719112	[]	wd:Q2232441
amh_323p	6599547	Colombo	LK	79.844327	6.933669	[]	wd:Q35381
amh_507p	6599548	Colombo Gammo	LK			[]	
amh_1118p	6599549	Comaribo	GF	-51.697979	4.38947	[]	wd:Q3322280
amh_9928p	6599550	Cometawana kreek	SR	-54.905795	5.782861	[]	
amh_453p	6599551	Commer	ID			[]	
amh_9072p	6599552	Commewijne Rivier	SR	-55.063004	5.894127	[]	wd:Q1115486
amh_1004p	6599553	Compagnie Bay	BQ;AW;CW;SX	-62.96223	17.495752	[]	
amh_1002p	6599554	Concordia baai	BQ;AW;CW;SX	-62.977229	17.502956	[]	
amh_1079p	6599555	Concordia, post	GY	-57.5	5.716666667	[]	
amh_543p	6599556	Conjemere	IN			[]	
amh_419p	6599557	Constantia	ZA	18.44175	-34.019354	[]	wd:Q1127739
amh_9882p	6599558	Coppename rivier	SR	-55.897408	5.7707444	[]	wd:Q11
amh_9976p	6599559	Corantijne Rivier		-57.15254	5.77838	[]	
amh_952p	6599560	Corisco, Island	GQ	9.318266	0.915774	[]	wd:Q749561
amh_1098p	6599561	Coronie	SR	-56.31666667	5.866666667	[]	wd:Q1130141
amh_1003p	6599562	Corre Corre baai	BQ;AW;CW;SX	-62.948647	17.487546	[]	
amh_490p	6599563	Cossimbazar	IN			[]	wd:Q675531
amh_9200p	6599564	Cottica 	SR	-54.796494	5.851733	[]	wd:Q1090505
amh_787p	6599565	Covelong	IN	80.250093	12.787205	[]	wd:Q4991956
amh_979p	6599566	Crabbebaai	BQ;AW;CW;SX			[]	
amh_355p	6599567	Cranganur	IN	76.211747	10.196296	[]	wd:Q3296456
amh_534p	6599568	Cuddalore	IN	79.769061	11.71578	[]	wd:Q279951
amh_699p	6599569	Cuijlen de	ZA			[]	
amh_844p	6599570	Daljosaphat	ZA			[]	
amh_876p	6599571	Daman	IN	72.832389	20.415028	[]	
amh_454p	6599572	Damar	ID	128.6666667	-7.116666667	[]	wd:Q1453389
amh_477p	6599573	Damar-Besar	ID			[]	wd:Q2713687
amh_563p	6599574	Dasseneiland	ZA	18.086572	-33.423705	[]	wd:Q2671186
amh_1105p	6599575	De Hoop	SR	-55.100241	5.732314	[]	
amh_1152p	6599576	Delft	NL			[]	
amh_505p	6599577	Delft island	LK	79.66666667	9.533333333	[]	wd:Q27442973
amh_324p	6599578	Demak	ID	110.639505	-6.892685	[]	wd:Q10967180
amh_9341p	6599579	Demerara, rivier	GY	-58.18213	6.778849	[]	wd:Q1185369
amh_748p	6599580	Dender	ID	129.951917	-4.5352	[]	
amh_1099p	6599581	Devil's Harwar	SR			[]	
amh_491p	6599582	Dhaka	BD	90.406823	23.70851	[]	wd:Q2024719
amh_899p	6599583	Diu	IN	70.988324	20.715376	[]	
amh_689p	6599584	Dixcove	GH	-1.950381	4.791568	[]	wd:Q1231673
amh_647p	6599585	Dodinga	ID	127.643917	0.856644	[]	
amh_800p	6599586	Drakenstein	ZA			[]	
amh_544p	6599587	Draksharam	IN			[]	
amh_509p	6599588	Dwars in de weg	LK	81.214964	8.54321	[]	wd:Q27442022
amh_807p	6599589	Edappalli	IN			[]	
amh_719p	6599590	Edatouritti	IN			[]	
amh_813p	6599591	Elephant Pass	LK	80.405138	9.525697	[]	wd:Q12974058
amh_682p	6599592	Elmina	GH	-1.350489	5.086841	[]	wd:Q968662
amh_857p	6599593	Elsjes Coraal	ZA			[]	
amh_814p	6599594	Eluthumadduval	LK			[]	
amh_1153p	6599595	Enkhuizen	NL	5.292306	52.703175	[]	
amh_995p	6599596	Epe	NG	3.975134	6.580714	[]	
amh_1081p	6599597	Epira	GY	-57.333283	5.13309	[]	
amh_1154p	6599598	Erang	ID	127.91509	-3.291304	[]	
amh_731p	6599599	Erkelenchene	LK			[]	
amh_620p	6599600	Esfahan	IR	51.679244	32.649132	[]	wd:Q42053
amh_10515p	6599601	Essaouira	MA	-9.772971	31.510285	[]	wd:Q216939
amh_9345p	6599602	Essequibo	GY	-58.525045	6.790547	[]	
amh_954p	6599603	Factorij J. van Roubergen	CG			[]	
amh_9640p	6599604	Ferdonando d'Noronho eiland	BR	-32.426843	-3.854641	[]	
amh_1053p	6599605	Fernando de Noronha	BR	-32.434587	-3.859116	[]	wd:Q175057
amh_1066p	6599606	Flag Island	GY	-58.515723	6.780577	[]	
amh_959p	6599607	Flatbush	US	-73.961341	40.641963	[]	wd:Q5283688
amh_961p	6599608	Flatlands	US	-73.933368	40.629262	[]	
amh_956p	6599609	Flushing	US	-73.833675	40.762861	[]	
amh_749p	6599610	Fombetokke	MG			[]	
amh_1010p	6599611	Fort Bay	BQ;AW;CW;SX	-63.251725	17.616405	[]	
amh_1024p	6599612	Fortaleza	BR	-38.525476	-3.724143	[]	wd:Q43463
amh_680p	6599613	Franschhoek	ZA	19.119251	-33.908854	[]	wd:Q615709
amh_955p	6599614	Freedland	US	-73.86666667	40.83333333	[]	
amh_982p	6599615	Fuik Baai	BQ;AW;CW;SX	-68.829706	12.051319	[]	wd:Q22088371
amh_701p	6599616	Fuzhou	CN	119.306345	26.058633	[]	wd:Q1033221
amh_648p	6599617	Galela	ID	127.84049	1.823766	[]	
amh_325p	6599618	Galle	LK	80.217612	6.033871	[]	wd:Q319366
amh_536p	6599619	Galoe	ID			[]	
amh_573p	6599620	Gansche Craal	ZA			[]	
amh_1100p	6599621	Gelderland	SR	-54.986705	5.451745	[]	
amh_1070p	6599622	Georgetown	GY	-58.158975	6.819483	[]	wd:Q10717
amh_759p	6599623	Geser	ID	130.897236	-3.882067	[]	
amh_9624p	6599624	Gibraltar		-5.345404	36.125999	[]	wd:Q1410
amh_673p	6599625	Gintota	LK	80.179031	6.061526	[]	wd:Q27446965
amh_905p	6599626	Girie	ID			[]	
amh_661p	6599627	Gitaislam	ID			[]	
amh_964p	6599628	Gloucester City	US	-75.118876	39.895382	[]	
amh_881p	6599629	Goa 	IN	73.881633	15.442015	[]	
amh_588p	6599630	Goa 	ID			[]	
amh_908p	6599631	Goed Begin, Logie	ID			[]	
amh_510p	6599632	Goenaville	LK			[]	
amh_690p	6599633	Goeree Island	SN	-17.3989319	14.6675879	[]	wd:Q244347
amh_910p	6599634	Gogodon	ID			[]	
amh_780p	6599635	Golepallem	IN			[]	
amh_545p	6599636	Golkonda	IN	78.404013	17.385023	[]	wd:Q17986822
amh_9642p	6599637	Gonçalo Álvares eiland	ZA	-9.936879	-40.313515	[]	wd:Q505935
amh_10575p	6599638	Goram	ID	131.406705	-3.99733	[]	
amh_650p	6599639	Gorontalo	ID	123.059134	0.542442	[]	
amh_9005p	6599640	Gouverneurseiland	US	-74.016759	40.689545	[]	
amh_428p	6599641	Graaff Reinet	ZA	24.538293	-32.2507	[]	wd:Q1004667
amh_917p	6599642	Grand Popo	BJ	1.760373	6.26812	[]	wd:Q1542478
amh_963p	6599643	Gravesend	US	-73.976619	40.591633	[]	wd:Q2486052
amh_10284p	6599644	Grenada	GD	-61.710465	12.058179	[]	
amh_326p	6599645	Gresik	ID	112.646055	-7.158806	[]	wd:Q7699747
amh_574p	6599646	Groene Cloof	ZA			[]	
amh_1101p	6599647	Groningen	SR	-55.548105	5.79649	[]	
amh_681p	6599648	Groote Schuur	ZA			[]	
amh_9740p	6599649	Grote Berg	CW	-68.996903	12.189777	[]	
amh_9708p	6599650	Guadeloupe	BQ;AW;CW;SX	-61.723409	15.997346	[]	
amh_707p	6599651	Gulegule	ID	130.697122	-3.810559	[]	
amh_415p	6599652	Gunung Api	ID	129.879484	-4.521153	[]	wd:Q24940257
amh_511p	6599653	Hakmana	LK	80.648357	6.083098	[]	wd:Q5640558
amh_677p	6599654	Hambantota	LK	81.123683	6.123871	[]	wd:Q652678
amh_382p	6599655	Hammenhiel	LK	79.847881	9.711622	[]	wd:Q12973620
amh_638p	6599656	Hanoi	VN	105.857964	21.013368	[]	wd:Q1858
amh_1074p	6599657	Hardenbroek, post bij plantage	GY			[]	
amh_949p	6599658	Harlem	US	-73.944912	40.815108	[]	
amh_972p	6599659	Hartford	US	-72.672	41.765358	[]	wd:Q33486
amh_345p	6599660	Haruku	ID	128.416729	-3.594289	[]	wd:Q1587817
amh_380p	6599661	Hatoena	CD	27.9169444	-3.4088888891	[]	
amh_435p	6599662	Hatoenoeko	ID	128.0475	-3.595277778	[]	
amh_629p	6599663	Hatuwa	ID	128.472919	-3.51842	[]	wd:Q12504221
amh_10260p	6599664	Havana	CU	-82.373527	23.111898	[]	wd:Q1563
amh_962p	6599665	Hempstead	US	-73.622847	40.709272	[]	
amh_778p	6599666	Hijili	IN			[]	
amh_365p	6599667	Hila	ID	128.08627	-3.581419	[]	wd:Q12485676
amh_1373p	6599668	Hinetelle	ID	127.995766	-3.075648	[]	
amh_733p	6599669	Hirado	JP	129.55746	33.37273	[]	
amh_9687p	6599670	Hispaniola	BQ;AW;CW;SX	-71.520327	19.041786	[]	wd:Q25277
amh_436p	6599671	Hitu-lama	ID	128.176281	-3.585081	[]	
amh_10534p	6599672	Hog Island	GY	-58.520968	6.86021	[]	
amh_862p	6599673	Hoi An	VN	108.3166667	15.878295	[]	
amh_1110p	6599674	Honkoop	SR			[]	
amh_1577p	6599675	Hoognodig	GY			[]	
amh_714p	6599676	Hoop op Constantia	ZA	18.412975	-34.03888	[]	
amh_878p	6599677	Hoorn	NL	5.057781	52.64072	[]	
amh_371p	6599678	Hormoz	IR	54.463432	27.067686	[]	wd:Q695265
amh_580p	6599679	Hottentots-Holland	ZA			[]	
amh_492p	6599680	Hougly	IN	88.401654	22.898553	[]	wd:Q1006256
amh_883p	6599681	Houtbay	ZA			[]	
amh_1084p	6599682	Houttuin	SR	-55.13333333	5.75	[]	
amh_867p	6599683	Huangpu	CN	113.5166667	23.099944	[]	
amh_1104p	6599684	Hughesburg	SR			[]	
amh_10569p	6599685	Hulong	ID	127.952665	-3.23257	[]	
amh_513p	6599686	Hultsdorf	LK	79.862042	6.936939	[]	wd:Q2783007
amh_1082p	6599687	Hurley	US	-74.061334	41.923834	[]	
amh_437p	6599688	Hutumuri	ID	128.284067	-3.697142	[]	wd:Q26735417
amh_1959p	6599689	Icoerwa	GY	-57.430297	5.742318	[]	
amh_1035p	6599690	Igarassu	BR	-34.906023	-7.833123	[]	wd:Q1787619
amh_1022p	6599691	Ilha Grande de Curupá	BR			[]	
amh_1106p	6599692	Imotappi	SR			[]	
amh_891p	6599693	Indragiri	ID			[]	
amh_535p	6599694	Indramayu	ID	108.289561	-6.388574	[]	wd:Q838033
amh_635p	6599695	Indrapura	ID	100.948877	-2.03925	[]	
amh_1054p	6599696	Ipojuca	BR	-35.063471	-8.399059	[]	wd:Q622830
amh_785p	6599697	Irakam	IN			[]	
amh_496p	6599698	Iranativu, North and South	LK			[]	
amh_1016p	6599699	Isla la Tortuga	VE	-65.329227	10.93681	[]	wd:Q130348
amh_1029p	6599700	Itamaracà eiland	BR	-34.824046	-7.748074	[]	
amh_327p	6599701	Jaffna	LK	80.00423	9.668277	[]	wd:Q215277
amh_448p	6599702	Jailolo	ID	127.466969	1.065012	[]	
amh_328p	6599703	Jakarta	ID	106.812079	-6.131765	[]	wd:Q3630
amh_1033p	6599704	Jamaica	US	-73.784723	40.70745	[]	
amh_614p	6599705	Jambi	ID	103.61583	-1.592169	[]	wd:Q7578
amh_10537p	6599706	Jamestown	US	-76.77937	37.208957	[]	
amh_1121p	6599707	Jan Pietersz. kolonie	GF			[]	
amh_921p	6599708	Jaquim	BJ	2.315526	6.3407937	[]	
amh_1077p	6599709	Jcourouwa, post	GY			[]	
amh_1006p	6599710	Jenkin´s Bay	BQ;AW;CW;SX	-62.999089	17.512574	[]	
amh_329p	6599711	Jepara	ID	110.668108	-6.593503	[]	wd:Q2662601
amh_947p	6599712	Jersey City	US	-74.05	40.71666667	[]	wd:Q26339
amh_752p	6599713	Jiddah	SA	39.163055	21.560393	[]	
amh_930p	6599714	Joal-Fadiout	SN	-16.8510532	14.1759407	[]	wd:Q1340331
amh_1026p	6599715	Joao Pessoa	BR	-34.886749	-7.117245	[]	wd:Q167436
amh_1088p	6599716	Jodensavanne	SR	-54.90525	5.427501	[]	wd:Q648787
amh_561p	6599717	Juwana	ID	111.142058	-6.717375	[]	
amh_9630p	6599718	Kaapverdië	CV	-23.626052	15.103414	[]	
amh_815p	6599719	Kachchai	LK			[]	
amh_517p	6599720	Kaddaiparichchan	LK	81.26305556	8.450555556	[]	wd:Q18708377
amh_363p	6599721	Kaibobo	ID	128.176432	-3.21456	[]	wd:Q19727047
amh_546p	6599722	Kakinada	IN	82.239776	16.959852	[]	wd:Q59018
amh_559p	6599723	Kalbut	ID			[]	
amh_433p	6599724	Kalpitya	LK	79.76253	8.23604	[]	wd:Q18708374
amh_370p	6599725	Kalutara	LK	79.964111	6.579946	[]	wd:Q1295530
amh_515p	6599726	Kandy	LK	80.6275	7.286944444	[]	wd:Q203197
amh_372p	6599727	Kanton/Guangzhou	CN	113.260689	23.146042	[]	wd:Q16572
amh_754p	6599728	Karaikal	IN	79.837124	10.92716	[]	wd:Q277258
amh_1312p	6599729	Karaitivu	LK	79.876928	9.737144	[]	wd:Q4213827
amh_991p	6599730	Karpata	BQ;AW;CW;SX	-68.352112	12.220025	[]	
amh_8755p	6599731	Kartasura	ID	110.739941	-7.557656	[]	wd:Q3183029
amh_560p	6599732	Kartosuro	ID			[]	
amh_816p	6599733	Kattaiveli	LK			[]	
amh_397p	6599734	Katuwana	LK	80.689931	6.267949	[]	wd:Q18708376
amh_998p	6599735	Kay Bay	BQ;AW;CW;SX	-62.97798	17.467938	[]	
amh_791p	6599736	Kayalpatnam	IN	78.125124	8.564386	[]	wd:Q603704
amh_595p	6599737	Kayankulam	IN	76.500535	9.17167	[]	wd:Q672672
amh_417p	6599738	Kayeli	ID	127.113519	-3.383709	[]	wd:Q19727385
amh_409p	6599739	Kediri	ID			[]	
amh_713p	6599740	Keelung	TW	121.765803	25.156956	[]	
amh_652p	6599741	Kema	ID	125.075691	1.3648789	[]	
amh_619p	6599742	Kerman	IR	57.08333333	30.3	[]	wd:Q171714
amh_920p	6599743	Keta	GH	0.99143	5.90847	[]	
amh_624p	6599744	Kets Mandui	IN			[]	
amh_704p	6599745	Khambhat	IN	72.620094	22.313912	[]	wd:Q654010
amh_776p	6599746	Khanakul	IN			[]	
amh_618p	6599747	Kharg	IR	50.325007	29.253156	[]	wd:Q862686
amh_385p	6599748	Khum Peam Lvek	KH	104.7666667	11.88333333	[]	wd:Q2101387
amh_514p	6599749	Kilakkarai	IN	78.785176	9.229961	[]	wd:Q2135478
amh_1768p	6599750	Kindua	IN			[]	
amh_945p	6599751	Kingston	US	-74.019444	41.933611	[]	
amh_516p	6599752	Kirinda	LK	81.336375	6.214197	[]	wd:Q104372621
amh_769p	6599753	Kisar	ID	127.2	-8.083333333	[]	wd:Q1743695
amh_983p	6599754	Knip Baai	BQ;AW;CW;SX	-69.151887	12.346562	[]	
amh_9868p	6599755	Koemacca kreek	SR	-57.00037	5.9514	[]	
amh_438p	6599756	Kohao	ID			[]	
amh_547p	6599757	Kokinaan	IN			[]	
amh_691p	6599758	Komenda	GH	-1.466666667	5.058798345	[]	
amh_804p	6599759	Kondaichchi	LK			[]	
amh_817p	6599760	Kopay	LK			[]	
amh_898p	6599761	Kota Tingi	MY	103.754854	1.466858	[]	
amh_470p	6599762	Kotaagung	ID	104.65	-5.5	[]	wd:Q26734252
amh_919p	6599763	Kpone	GH	0.059566	5.6878185	[]	
amh_9832p	6599764	Krabbetago 	SR	-54.337497	5.668172	[]	
amh_384p	6599765	Kraton Yogyakarta	ID	110.364393	-7.805286	[]	wd:Q10778917
amh_697p	6599766	Kronendal	ZA			[]	
amh_865p	6599767	Kuala Kedah	MY			[]	
amh_863p	6599768	Kuala Linggi	MY			[]	
amh_612p	6599769	Kuala Selangor	MY	101.257696	3.326472	[]	wd:Q3267302
amh_487p	6599770	Kundapura	IN	74.69128	13.625593	[]	wd:Q26791160
amh_639p	6599771	Kupang	ID	123.598051	-10.158998	[]	
amh_672p	6599772	Kwandang	ID	122.951245	0.899726	[]	
amh_1063p	6599773	Kyk Overal	GY	-58.681136	6.386037	[]	wd:Q2926371
amh_456p	6599774	Lacij	ID			[]	
amh_669p	6599775	Laha	ID	128.103111	-3.701403	[]	
amh_471p	6599776	Lampong Toulang Bauang	ID	105.3166667	-4.5	[]	wd:Q24828188
amh_583p	6599777	Land van Waveren	ZA			[]	wd:Q25614591
amh_421p	6599778	Langebaan	ZA	18.039157	-33.093627	[]	
amh_457p	6599779	Laoutang	ID			[]	wd:Q24340686
amh_753p	6599780	Lar	IR	54.341097	27.683832	[]	
amh_373p	6599781	Larike	ID	127.930505	-3.755191	[]	wd:Q6489363
amh_712p	6599782	Lawayang	ID			[]	
amh_375p	6599783	Laäla	ID	128.0733333	-3.156666667	[]	
amh_575p	6599784	Leeukop	ZA	18.388644	-33.93486	[]	wd:Q31405946
amh_10532p	6599785	Leguan Island	GY	-58.414604	6.927554	[]	wd:Q6518695
amh_458p	6599786	Leti	ID	127.6666667	-8.166666667	[]	wd:Q1446634
amh_966p	6599787	Lewes	US	-75.143423	38.776837	[]	wd:Q5034940
amh_346p	6599788	Liang	ID	128.318324	-3.508966	[]	wd:Q24343879
amh_347p	6599789	Lima	ID	127.968307	-3.643115	[]	
amh_537p	6599790	Limbangan	ID	108.39853	-6.388319	[]	wd:Q25132876
amh_653p	6599791	Limboto	ID	122.926687	0.638117	[]	
amh_1371p	6599792	Lisabata	ID	128.709219	-2.865642	[]	
amh_1345p	6599793	Lissidi	ID	127.93875	-3.343737	[]	
amh_938p	6599794	Loango	CG	11.83333333	-4.633333333	[]	wd:Q1479630
amh_644p	6599795	Loji	ID	127.544174	-1.504954	[]	
amh_439p	6599796	Loki	ID	128.058944	-3.307621	[]	wd:Q20894693
amh_939p	6599797	Luanda	AO	13.226159	-8.812009	[]	wd:Q3897
amh_1329p	6599798	Lucelle	ID	127.977209	-3.401596	[]	
amh_374p	6599799	Luhu	ID	127.982218	-3.38765	[]	wd:Q24329428
amh_851p	6599800	Lumajang	ID	113.222258	-8.132351	[]	wd:Q12517586
amh_868p	6599801	Macao	CN	113.535962	22.18971	[]	wd:Q14773
amh_486p	6599802	Machilipatnam	IN	81.134348	16.187475	[]	wd:Q845662
amh_598p	6599803	Madalagam	IN			[]	
amh_875p	6599804	Madeira	PT	-16.988411	32.778038	[]	
amh_1158p	6599805	Madras	IN			[]	
amh_1358p	6599806	Magelhaen, Straat van	CL	-70.39418	-52.71241	[]	wd:Q48365
amh_798p	6599807	Mahagama	LK			[]	
amh_666p	6599808	Mahebourg	MU	57.700524	-20.406662	[]	wd:Q1291379
amh_344p	6599809	Makassar	ID	119.415522	-5.129414	[]	wd:Q14634
amh_655p	6599810	Makian	ID	127.3666667	0.333333333	[]	
amh_562p	6599811	Malang	ID	112.626843	-7.980273	[]	wd:Q11095
amh_773p	6599812	Maldah	IN	88.136086	25.01974	[]	
amh_942p	6599813	Malembo	AO	12.18632	-5.336216	[]	
amh_818p	6599814	Mallakam	LK			[]	
amh_700p	6599815	Malmesbury	ZA	18.721333	-33.45837	[]	
amh_838p	6599816	Malpa	IN			[]	
amh_519p	6599817	Malwanne	LK	80.015652	6.948707	[]	wd:Q18708383
amh_9813p	6599818	Mama 	SR	-55.066669	5.15	[]	
amh_440p	6599819	Mamala	ID	128.188344	-3.560517	[]	wd:Q12496446
amh_641p	6599820	Manado	ID	124.838133	1.486936	[]	wd:Q15847
amh_518p	6599821	Manapaar	IN			[]	
amh_796p	6599822	Mandagetto	LK			[]	
amh_716p	6599823	Mangalore	IN	74.838645	12.848833	[]	
amh_599p	6599824	Manicoorde	IN			[]	
amh_1149p	6599825	Manila	PH	120.980358	14.604183	[]	wd:Q1461
amh_441p	6599826	Manipa	ID	127.55	-3.3	[]	wd:Q12491003
amh_819p	6599827	Manipay	LK			[]	
amh_405p	6599828	Mannar	LK	79.910574	8.981393	[]	wd:Q426532
amh_520p	6599829	Mantota	LK	80.01861111	9.003055556	[]	wd:Q15245625
amh_9802p	6599830	Mapane 	SR	-54.68333	5.466669	[]	
amh_720p	6599831	Maparany	IN			[]	
amh_521p	6599832	Mapulegam	LK	80.30944444	6.118888889	[]	
amh_394p	6599833	Maputo	MZ	32.58333333	-25.96666667	[]	wd:Q2452912
amh_803p	6599834	Marawila	LK			[]	
amh_1881p	6599835	Marbongh	ID			[]	
amh_1048p	6599836	Marechal Deodoro	BR	-35.899115	-9.717771	[]	wd:Q985275
amh_674p	6599837	Marichchukkaddi	LK	79.945948	8.580631	[]	wd:Q27447965
amh_9841p	6599838	Mariewoera 	SR	-55.404063	5.271275	[]	
amh_768p	6599839	Maroantsetra	MG	49.739728	-15.435562	[]	wd:Q118175
amh_478p	6599840	Maronda	ID	106.972132	-6.110856	[]	wd:Q2481870
amh_330p	6599841	Maros	ID	119.572263	-5.005104	[]	wd:Q14611
amh_9312p	6599842	Marowijne, rivier	SR	-54.031277	5.5411528	[]	wd:Q1369002
amh_9816p	6599843	Marshall kreek	SR	-55.0828955	5.267606444	[]	
amh_856p	6599844	Martaban	MM	97.608275	16.526126	[]	wd:Q138708
amh_9683p	6599845	Martinique	BQ;AW;CW;SX	-61.027561	14.692379	[]	
amh_957p	6599846	Maspeth	US	-73.93333333	40.75	[]	wd:Q6783902
amh_9198p	6599847	Matapica 	SR	-55.016023	5.972856	[]	
amh_331p	6599848	Matara	LK	80.536451	5.9509	[]	wd:Q13360574
amh_600p	6599849	Matricotta	IN			[]	
amh_842p	6599850	Matuaal	LK	79.867406	6.965749	[]	
amh_1040p	6599851	Maurisstad	BR	-34.877244	-8.0648	[]	
amh_1107p	6599852	Mauritsburg	SR			[]	
amh_897p	6599853	Mayu	ID			[]	
amh_953p	6599854	Mayumba	GA	10.652761	-3.432032	[]	wd:Q2738426
amh_1140p	6599855	Mecoria	GF	-52.322163	4.93208	[]	
amh_1117p	6599856	Meidorp	NG			[]	
amh_332p	6599857	Melaka	MY	102.253075	2.196727	[]	wd:Q61089
amh_1903p	6599858	Middelburg	ID			[]	
amh_1151p	6599859	Middelburg	NL	3.614101	51.502118	[]	
amh_422p	6599860	Middelburg 	ZA			[]	
amh_774p	6599861	Mirzapur	IN			[]	
amh_735p	6599862	Missier	ID			[]	
amh_459p	6599863	Moa	ID	127.9	-8.183333333	[]	wd:Q1941313
amh_637p	6599864	Moaratanjong	ID			[]	
amh_442p	6599865	Molana	ID	128.608775	-3.641311	[]	wd:Q19731160
amh_9652p	6599866	Montreal	CA	-73.586146	45.499014	[]	wd:Q340
amh_1062p	6599867	Moruka kreek, post aan de	GY			[]	
amh_884p	6599868	Mosselbaai	ZA			[]	
amh_757p	6599869	Moti	ID	127.4	0.433333333	[]	
amh_10529p	6599870	Motkreek	SR	-54.71201	5.944801	[]	
amh_934p	6599871	Mount, Cape	LR	-11.3667726	6.75	[]	
amh_692p	6599872	Mouri	GH	-1.199809	5.130398	[]	wd:Q6911238
amh_1172p	6599873	Mozambique	MZ	40.743866	-15.028995	[]	
amh_576p	6599874	Muizenberg	ZA	18.495383	-34.096454	[]	wd:Q116448
amh_820p	6599875	Mukamalai	LK			[]	
amh_9157p	6599876	Mulgirigala	LK	80.736154	6.123193	[]	
amh_522p	6599877	Mullaittivu	LK	80.814986	9.268422	[]	wd:Q18708389
amh_378p	6599878	Mullipattu	LK			[]	
amh_493p	6599879	Murshidabad	IN	88.271577	24.176747	[]	wd:Q1924611
amh_705p	6599880	Muscat	OM	58.394709	23.596239	[]	wd:Q3826
amh_821p	6599881	Myleddi	LK			[]	
amh_523p	6599882	Nackelgamma	LK			[]	
amh_404p	6599883	Nagappattinam	IN	79.84732	10.764993	[]	wd:Q695585
amh_333p	6599884	Nagasaki	JP	129.872814	32.742923	[]	wd:Q38234
amh_508p	6599885	Nagercoil	LK	77.436175	8.176829	[]	wd:Q847606
amh_790p	6599886	Nagore	IN	79.840815	10.817288	[]	wd:Q1963604
amh_782p	6599887	Nagulvancha	IN			[]	
amh_622p	6599888	Nakhon Si Thammarat	TH	99.953384	8.465581	[]	wd:Q1012424
amh_443p	6599889	Nalahia	ID	128.779502	-3.649698	[]	wd:Q24344046
amh_725p	6599890	Nallur	LK			[]	
amh_805p	6599891	Nanaddan	LK			[]	
amh_850p	6599892	Nannoe	IN			[]	
amh_783p	6599893	Narasapur	IN	81.695695	16.434192	[]	wd:Q379516
amh_1025p	6599894	Natal	BR	-35.206904	-5.783638	[]	
amh_634p	6599895	Natal	ID	99.11341	0.555015	[]	
amh_822p	6599896	Navatkuli	LK			[]	
amh_334p	6599897	Negombo	LK	79.839592	7.216712	[]	wd:Q668616
amh_1159p	6599898	Nellore	IN			[]	
amh_524p	6599899	Nendemale	LK			[]	
amh_965p	6599900	New Castle	US	-75.564916	39.660718	[]	
amh_948p	6599901	New York	US	-74.009771	40.709922	[]	wd:Q60
amh_846p	6599902	Newland	ZA			[]	
amh_742p	6599903	Ngofakiaha	ID	127.419176	0.36628	[]	
amh_525p	6599904	Nielwelle	LK	80.78111111	6.012222222	[]	
amh_1090p	6599905	Nieuw Amsterdam 	SR	-55.087817	5.885547	[]	wd:Q762619
amh_1061p	6599906	Nieuw Middelburg 	GY			[]	
amh_1102p	6599907	Nieuw Nickerie	SR	-56.992021	5.936472	[]	
amh_1071p	6599908	Nieuw-Amsterdam, Berbice 	GY	-57.668463	5.745758	[]	
amh_1072p	6599909	Nieuw-Amsterdam, Berbice 	GY	-57.516103	6.250374	[]	
amh_1032p	6599910	Nieuw-Utrecht	US	-74.001292	40.611346	[]	wd:Q1536676
amh_577p	6599911	Niguasbosch	ZA			[]	
amh_460p	6599912	Nila	ID	129.514675	-6.739281	[]	wd:Q15122888
amh_784p	6599913	Nizampatnam	IN	80.666842	15.903556	[]	wd:Q988685
amh_403p	6599914	Noessanive	ID	128.08715	-3.784631	[]	
amh_366p	6599915	Nollot	ID	128.693104	-3.498834	[]	wd:Q12500870
amh_1162p	6599916	Noordhoek	ZA	18.381829	-34.102139	[]	wd:Q378376
amh_10570p	6599917	Nulaha	ID	127.917702	-3.263207	[]	
amh_402p	6599918	Nusa Laut	ID	128.7833333	-3.666666667	[]	wd:Q2008985
amh_758p	6599919	Nussatello	ID	127.907104	-3.651945	[]	
amh_467p	6599920	Nzwani	KM	44.401903	-12.159835	[]	wd:Q231324
amh_564p	6599921	Oelopampang	ID			[]	
amh_923p	6599922	Offra	BJ			[]	
amh_1031p	6599923	Olinda	BR	-34.85512	-8.008492	[]	wd:Q28301
amh_399p	6599924	Onrus	ID	106.733536	-6.033351	[]	wd:Q2675109
amh_10304p	6599925	Oostpunt 		-68.750132	12.052505	[]	wd:Q22088097
amh_994p	6599926	Oranjestad	BQ;AW;CW;SX	-62.983861	17.481917	[]	
amh_1008p	6599927	Oranjestad Baai	BQ;AW;CW;SX	-62.987303	17.48204	[]	
amh_1108p	6599928	Oranjewoud	SR			[]	
amh_974p	6599929	Otrobanda	BQ;AW;CW;SX	-68.936384	12.107348	[]	wd:Q1642093
amh_918p	6599930	Ouidah	BJ	2.083104	6.363838	[]	
amh_445p	6599931	Ourien, Ambon	ID	127.95011	-3.666928	[]	wd:Q12523538
amh_461p	6599932	Ourien, Lonthor	ID	129.920228	-4.567124	[]	wd:Q24340687
amh_446p	6599933	Ouw	ID	128.715284	-3.604637	[]	wd:Q12501540
amh_859p	6599934	Paardeberg	ZA			[]	
amh_420p	6599935	Paarl	ZA	18.960843	-33.726553	[]	wd:Q1018144
amh_631p	6599936	Padang	ID	100.355244	-0.947528	[]	wd:Q7253
amh_718p	6599937	Padricotta Parri	IN			[]	
amh_849p	6599938	Pagodinho	IN			[]	
amh_630p	6599939	Painan	ID	100.574757	-1.35085	[]	wd:Q7124853
amh_548p	6599940	Palakollu	IN	81.725864	16.520037	[]	wd:Q1945121
amh_335p	6599941	Palembang	ID	104.748917	-2.97047	[]	wd:Q8131
amh_717p	6599942	Pallippuram	IN			[]	
amh_538p	6599943	Pamotangh	ID			[]	wd:Q26731262
amh_802p	6599944	Panadura	LK	79.906468	6.713369	[]	wd:Q7129771
amh_890p	6599945	Panaitan	ID			[]	
amh_795p	6599946	Panama	LK	81.807961	6.759397	[]	
amh_565p	6599947	Panarukan	ID	113.943	-7.680861	[]	wd:Q25267039
amh_864p	6599948	Pangkor	MY			[]	
amh_376p	6599949	Pantattaripu	LK	79.95	9.783333333	[]	wd:Q27447708
amh_907p	6599950	Pantjana	ID			[]	
amh_602p	6599951	Paponette	IN			[]	
amh_9824p	6599952	Para 	SR	-55.1368942	5.72993103	[]	
amh_835p	6599953	Paradeys	ZA			[]	
amh_1083p	6599954	Paramaribo	SR	-55.153066	5.828596	[]	wd:Q3001
amh_9300p	6599955	Paramarica, kreek	SR	-54.8	5.8833306	[]	wd:Q59100013
amh_566p	6599956	Parang	ID			[]	
amh_550p	6599957	Parangipettai	IN	79.760177	11.49138	[]	wd:Q2542786
amh_9870p	6599958	Pararac kreek	SR	-55.131787	5.661556697	[]	
amh_1593p	6599959	Paretiture	LK			[]	
amh_633p	6599960	Pariaman	ID	100.117886	-0.627581	[]	
amh_656p	6599961	Parigi	ID	120.187633	-0.839394	[]	
amh_1046p	6599962	Paripueira	BR	-35.546966	-9.466503	[]	wd:Q1795979
amh_808p	6599963	Paru	IN	76.668577	8.810948	[]	
amh_1021p	6599964	Paru rivier, post aan de	BR			[]	
amh_336p	6599965	Passo	ID	128.245676	-3.626541	[]	
amh_381p	6599966	Pasuruan	ID	112.904084	-7.643836	[]	wd:Q11449
amh_526p	6599967	Patchelapallij	LK			[]	
amh_353p	6599968	Patna	IN	85.141679	25.611306	[]	wd:Q80484
amh_657p	6599969	Pattani	TH	101.250422	6.869635	[]	
amh_9071p	6599970	Paulus Kreek	SR	-55.09999	5.75	[]	
amh_711p	6599971	Pegu	MM	96.495266	17.337202	[]	
amh_567p	6599972	Pekalongan	ID	109.676113	-6.879051	[]	wd:Q11026
amh_1049p	6599973	Penedo	BR	-36.558924	-10.285025	[]	
amh_760p	6599974	Peng-Hu	TW	119.547922	23.552922	[]	
amh_9796p	6599975	Peninika 	SR	-54.618522	5.300396	[]	
amh_609p	6599976	Pera	MY			[]	
amh_9230p	6599977	Perica, kreek	SR	-54.6666722	5.7833306	[]	
amh_506p	6599978	Phalta	IN	88.122962	22.295966	[]	wd:Q5432811
amh_968p	6599979	Philadelphia	US	-75.161276	39.955807	[]	wd:Q1345
amh_986p	6599980	Philipsburg	BQ;AW;CW;SX	-63.049865	18.024935	[]	wd:Q30958
amh_893p	6599981	Phnom Penh	KH	104.9166667	11.58333333	[]	
amh_866p	6599982	Phuket	TH	98.36666667	7.880726	[]	
amh_367p	6599983	Pia	ID	128.64363	-3.5344	[]	
amh_975p	6599984	Pietermaai	BQ;AW;CW;SX	-68.926347	12.103466	[]	wd:Q2181653
amh_1089p	6599985	Pikin Saron?	SR			[]	
amh_981p	6599986	Piscaderabaai	BQ;AW;CW;SX	-68.968184	12.119977	[]	wd:Q19901662
amh_527p	6599987	Pitigala	LK	80.223302	6.343877	[]	
amh_732p	6599988	Pittuancarre	LK			[]	
amh_1012p	6599989	Plymouth	TT	-60.777361	11.221637	[]	
amh_721p	6599990	Poedoecoenatte	IN			[]	
amh_1157p	6599991	Poelezeere	IN			[]	
amh_610p	6599992	Poelo Gontong	MY			[]	
amh_723p	6599993	Poetenbare	IN			[]	
amh_1569p	6599994	Point Pedro	LK	80.23333333	9.816666667	[]	wd:Q2307889
amh_9365p	6599995	Pomeroon rivier	GY	-58.748868	7.609656	[]	wd:Q1535385
amh_549p	6599996	Pondicherry	IN	79.827976	11.938234	[]	wd:Q639421
amh_873p	6599997	Pondokgede	ID			[]	
amh_601p	6599998	Ponnani	IN	75.920835	10.776903	[]	wd:Q854841
amh_621p	6599999	Pontianak	ID	109.336267	-0.022745	[]	wd:Q14168
amh_528p	6600000	Pooneryn	LK	80.20666667	9.501388889	[]	wd:Q12986531
amh_909p	6600001	Port Elizabeth	ZA	25.617099	-33.958383	[]	wd:Q125434
amh_447p	6600002	Porto	ID	128.607473	-3.568933	[]	wd:Q19731056
amh_1045p	6600003	Porto Calvo	BR	-35.398556	-9.056594	[]	wd:Q1772636
amh_1065p	6600004	Porto Marie	BQ;AW;CW;SX	-69.085425	12.219506	[]	
amh_928p	6600005	Portudal	SN	14.46666667	-17.0	[]	
amh_976p	6600006	Pos Cabay	BQ;AW;CW;SX	-68.908582	12.114775	[]	
amh_1827p	6600007	Post aan de rivier Maningaar	MG			[]	
amh_894p	6600008	Post aan de rivier Manumbagh	MG			[]	
amh_1578p	6600009	Post aan den berg	GY			[]	
amh_539p	6600010	Preangerlanden	ID			[]	wd:Q2383259
amh_430p	6600011	Pretoria	ZA	28.218799	-25.729937	[]	wd:Q3926
amh_971p	6600012	Prince's Island	US			[]	
amh_693p	6600013	Princes Town	GH	-2.13529586	4.794732683	[]	
amh_932p	6600014	Principe	ST	7.395175	1.605854	[]	
amh_1092p	6600015	Prins Willem Frederick	SR			[]	
amh_1036p	6600016	Province Island 	US	-75.25	40.1	[]	
amh_668p	6600017	Puger	ID	113.476052	-8.372099	[]	
amh_337p	6600018	Pulicat	IN	80.317168	13.417423	[]	wd:Q2117793
amh_823p	6600019	Pulopallai	LK			[]	
amh_504p	6600020	Punneikayal	LK			[]	wd:Q7260453
amh_1015p	6600021	Punta de Araya	VE	-64.256988	10.573041	[]	wd:Q32000279
amh_603p	6600022	Purakkad	IN			[]	
amh_480p	6600023	Purmenent	ID			[]	wd:Q24843545
amh_410p	6600024	Purwakarta	ID	110.40519	-7.868631	[]	
amh_529p	6600025	Puttalam	LK	79.826142	8.033585	[]	wd:Q3088741
amh_824p	6600026	Putur	LK			[]	
amh_702p	6600027	Qeshm	IR	56.273167	26.95941	[]	wd:Q240719
amh_882p	6600028	Quelimanie	MZ	36.880954	-17.874697	[]	
amh_392p	6600029	Quilon	IN	76.592016	8.882019	[]	wd:Q321475
amh_895p	6600030	Raha	ID	122.721012	-4.831424	[]	
amh_708p	6600031	Raiebaagh	IN			[]	
amh_1905p	6600032	Rajbagh				[]	
amh_494p	6600033	Rajmahal	IN	87.829449	25.055434	[]	wd:Q2355927
amh_1093p	6600034	Rama	SR	-55.10264	5.288443	[]	
amh_10571p	6600035	Rarakit	ID	130.880295	-3.596621	[]	
amh_1037p	6600036	Recife Antigo	BR	-34.87231	-8.062771	[]	wd:Q4357085
amh_552p	6600037	Rembang	ID	111.341579	-6.704887	[]	wd:Q24843292
amh_944p	6600038	Rensselaer	US	-73.743632	42.641851	[]	
amh_1111p	6600039	Republiek	SR	-55.206048	5.496302	[]	
amh_1028p	6600040	Restinga island	BR	-34.858038	-6.992541	[]	wd:Q537910
amh_1044p	6600041	Rio Formoso	BR	-37.06666667	-8.583333333	[]	
amh_582p	6600042	Riviersonderend	ZA	19.914197	-34.150259	[]	wd:Q667534
amh_1138p	6600043	Road Town	VG	-64.620173	18.423756	[]	
amh_393p	6600044	Robbeneiland	ZA	18.370671	-33.805896	[]	wd:Q192493
amh_462p	6600045	Roma	ID	127.45	-7.566666667	[]	wd:Q650971
amh_879p	6600046	Rotterdam	NL	4.483333333	51.91666667	[]	
amh_351p	6600047	Rozengain	ID	130.04	-4.59	[]	wd:Q3410727
amh_929p	6600048	Rufisque	SN	-17.2820091	14.71478747	[]	wd:Q1019424
amh_350p	6600049	Run	ID	129.685163	-4.553153	[]	
amh_728p	6600050	Ruwanwella	LK			[]	
amh_900p	6600051	S. Luzia	MG			[]	
amh_847p	6600052	Saccam	TW	120.202127	22.995633	[]	
amh_1160p	6600053	Sadian bon Porte	MG			[]	
amh_551p	6600054	Sadras	IN	80.163324	12.526789	[]	wd:Q4992182
amh_364p	6600055	Said	ID	128.03431	-3.593775	[]	wd:Q12512866
amh_10540p	6600056	Saint Lucia	BQ;AW;CW;SX	-61.038584	13.839251	[]	
amh_9695p	6600057	Saint Martin	BQ;AW;CW;SX	-63.047988	18.083144	[]	
amh_10539p	6600058	Saint-Barthélemy		-62.830258	17.897604	[]	wd:Q25362
amh_338p	6600059	Salatiga	ID	110.504594	-7.342122	[]	wd:Q11021
amh_589p	6600060	Salayar	ID	120.476561	-6.118025	[]	wd:Q2121185
amh_429p	6600061	Saldanha	ZA	17.943063	-33.00672	[]	wd:Q1643816
amh_1372p	6600062	Salouky	ID	127.975185	-3.408156	[]	
amh_1052p	6600063	Salvador	BR	-38.48333333	-12.96666667	[]	
amh_482p	6600064	Sampora	ID			[]	
amh_1058p	6600065	San Juan	PR	-66.116717	18.466217	[]	
amh_658p	6600066	Sanana	ID	125.980039	-2.05589	[]	wd:Q1357603
amh_1047p	6600067	Santa Luzia do Norte	BR	-35.822502	-9.604241	[]	wd:Q1816274
amh_1023p	6600068	Sao Luís	BR	-44.300709	-2.528095	[]	wd:Q28441
amh_368p	6600069	Saparua eiland	ID	128.655024	-3.572702	[]	wd:Q1584814
amh_9202p	6600070	Saramacca Rivier	SR	-55.732348	5.852081	[]	wd:Q2167056
amh_924p	6600071	Save	BJ	2.483333333	8.033333333	[]	
amh_1075p	6600072	Savonette	GY			[]	
amh_339p	6600073	Sawaij	ID	129.181702	-2.95877	[]	wd:Q24340620
amh_1014p	6600074	Scarborough	TT	-60.737296	11.183012	[]	
amh_578p	6600075	Seekoeivlei	ZA	18.51666667	-34.05	[]	
amh_694p	6600076	Sekondi	GH	-1.708982	4.938323	[]	wd:Q243293
amh_401p	6600077	Semarang	ID	110.421467	-6.965619	[]	wd:Q11025
amh_695p	6600078	Senya Beraku	GH	-0.495	5.385	[]	wd:Q28943906
amh_1356p	6600079	Seram Laut	ID	130.918664	-3.887073	[]	
amh_1051p	6600080	Sergipe del Rey	BR	-37.2133401	-11.012455	[]	
amh_745p	6600081	Serikkembelo	ID	127.943587	-3.360917	[]	
amh_1043p	6600082	Serinhaem	BR	-35.116321	-8.590824	[]	wd:Q929655
amh_770p	6600083	Sermata	ID	128.9166667	-8.216666667	[]	wd:Q14544403
amh_1374p	6600084	Sero Lauw	ID	128.087948	-3.131573	[]	
amh_696p	6600085	Shama	GH	-1.625	5.02	[]	wd:Q226124
amh_703p	6600086	Sharkej	IN			[]	
amh_775p	6600087	Sherpur	IN	90.016515	25.015851	[]	wd:Q1991885
amh_781p	6600088	Shiraz	IR	52.524834	29.620027	[]	
amh_590p	6600089	Siam, Maccassar	ID			[]	
amh_646p	6600090	Siau	ID	125.4166667	2.75	[]	
amh_1007p	6600091	Signal Hill	BQ;AW;CW;SX	-62.992523	17.496939	[]	
amh_843p	6600092	Silalauw	ID	128.766275	-3.647959	[]	
amh_579p	6600093	Simon's Town	ZA	18.424391	-34.185252	[]	wd:Q1013370
amh_10302p	6600094	Sint Joris Baai	CW	-68.815371	12.12258	[]	
amh_984p	6600095	Sint Michielsbaai	BQ;AW;CW;SX	-68.998697	12.145613	[]	
amh_449p	6600096	Sirri Sorrij	ID	128.697814	-3.585852	[]	wd:Q12515400
amh_990p	6600097	Slagbaai	BQ;AW;CW;SX	-68.413358	12.264203	[]	
amh_1005p	6600098	Smoke Alley	BQ;AW;CW;SX	-62.983333	17.483333	[]	
amh_737p	6600099	Soecawayana	ID			[]	
amh_532p	6600100	Soetwaters Eijlant	IN			[]	
amh_389p	6600101	Somerset West	ZA	18.837748	-34.07328	[]	wd:Q1290313
amh_1091p	6600102	Sommelsdijk	SR	-54.864544	5.8161224	[]	
amh_861p	6600103	Songkhla	TH	100.5833333	7.2	[]	
amh_940p	6600104	Soyo	AO	12.367208	-6.132917	[]	
amh_604p	6600105	St. Andries	IN			[]	
amh_1128p	6600106	St. Anna's dorp	BQ;AW;CW;SX	-68.91666667	12.11666667	[]	
amh_533p	6600107	St. Bastiaan	LK			[]	
amh_869p	6600108	St. Helena eiland	SH	-5.717454	-15.925759	[]	wd:Q34497
amh_10271p	6600109	St. Kitts	KN	-62.767483	17.360226	[]	wd:Q763
amh_977p	6600110	St. Kruis	BQ;AW;CW;SX	-69.144613	12.306015	[]	
amh_1904p	6600111	St. Louis	SN	-16.4970334	16.02407699	[]	
amh_10280p	6600112	St. Lucia	LC	-60.959451	13.916195	[]	wd:Q760
amh_887p	6600113	St. Paul eiland	TF	77.518787	-38.725965	[]	
amh_786p	6600114	St. Thomas	IN	80.1928	13.002718	[]	
amh_1034p	6600115	State Island	US	-74.13333333	40.58333333	[]	
amh_387p	6600116	Stellenbosch	ZA	18.856266	-33.934103	[]	wd:Q5460
amh_10390p	6600117	Straat Le Maire		-64.919145	-54.787176	[]	wd:Q1479175
amh_756p	6600118	Sukadana	ID	109.952431	-1.229688	[]	
amh_540p	6600119	Sukaraja	ID			[]	
amh_541p	6600120	Sumedang	ID	107.925024	-6.838658	[]	wd:Q15073336
amh_568p	6600121	Sumenep	ID	113.860574	-7.00353	[]	wd:Q11773508
amh_340p	6600122	Surabaya	ID	112.733946	-7.286701	[]	wd:Q11462
amh_411p	6600123	Surakarta	ID	110.814915	-7.56195	[]	wd:Q13095204
amh_341p	6600124	Surat	IN	72.818828	21.195936	[]	wd:Q4629
amh_9070p	6600125	Suriname Rivier	SR	-55.105858	5.836608	[]	
amh_9855p	6600126	Surnows Kreek	SR	-55.830667	5.370113	[]	
amh_625p	6600127	Suvali	IN	72.634048	21.162002	[]	
amh_400p	6600128	Swellendam	ZA	20.436945	-34.024352	[]	wd:Q1632782
amh_854p	6600129	Syriam	MM	96.244683	16.764604	[]	wd:Q2734515
amh_931p	6600130	São Tomé	ST	6.604042	0.249938	[]	
amh_1186p	6600131	Tacome	ID	127.312135	0.844576	[]	
amh_665p	6600132	Tahuna	ID	125.573459	3.577243	[]	
amh_915p	6600133	Takoradi	GH	-1.755459	4.886501	[]	wd:Q243293
amh_664p	6600134	Taliabu	ID			[]	
amh_1146p	6600135	Tamandarè	BR	-35.103661	-8.757234	[]	
amh_663p	6600136	Tamma Callang	ID			[]	
amh_825p	6600137	Tampakamam	LK			[]	
amh_734p	6600138	Tan-shui	TW	121.440282	25.169912	[]	
amh_906p	6600139	Tanete	ID	120.327044	-4.541517	[]	
amh_1764p	6600140	Tangail	IN	89.914681	24.249175	[]	wd:Q13058928
amh_398p	6600141	Tangalla	LK	80.79055556	6.026388889	[]	wd:Q598658
amh_1652p	6600142	Tanimbar	ID	131.445068	-7.565349	[]	
amh_484p	6600143	Tanjong Poura	ID	107.289255	-6.264878	[]	wd:Q25165157
amh_412p	6600144	Tanjung Timur	ID	106.860316	-6.303526	[]	wd:Q19646133
amh_870p	6600145	Tanjung West	ID			[]	
amh_611p	6600146	Tanjungpinang	ID	104.447508	0.917148	[]	wd:Q10104
amh_1020p	6600147	Tapajos rivier	BR			[]	
amh_636p	6600148	Tappenoulie	ID			[]	
amh_1116p	6600149	Tarrytown	US	-73.859761	41.077793	[]	
amh_892p	6600150	Tarusan	ID			[]	
amh_933p	6600151	Tasso Island	SL	-13.0761337	8.5562384	[]	
amh_667p	6600152	Tatta	PK	67.924147	24.744493	[]	wd:Q27212
amh_9844p	6600153	Tawariekoera 	SR	-55.870523	5.502219	[]	
amh_342p	6600154	Tegal	ID	109.133112	-6.866013	[]	wd:Q11027
amh_826p	6600155	Tellippalai	LK			[]	
amh_9180p	6600156	Tempati 	SR	-54.666672	5.3833306	[]	wd:Q34963468
amh_767p	6600157	Tengapatnam, Malabaar	IN	77.171781	8.238291	[]	
amh_1011p	6600158	Tent Bay	BQ;AW;CW;SX	-63.252565	17.617008	[]	
amh_662p	6600159	Terlucco	ID			[]	
amh_651p	6600160	Ternate	ID	127.3833333	0.8	[]	
amh_1766p	6600161	Tessindia	IN			[]	
amh_463p	6600162	Teun	ID	129.14011	-6.972776	[]	wd:Q15060339
amh_788p	6600163	Thiruppapuliyur	IN			[]	
amh_418p	6600164	Tidore	ID	127.4166667	0.666666667	[]	wd:Q19153
amh_896p	6600165	Tifore	ID			[]	
amh_632p	6600166	Tiku	ID			[]	
amh_902p	6600167	Tiruchchirappalli	IN	78.69401	10.8328	[]	wd:Q15201
amh_789p	6600168	Tirumullaivasal	IN			[]	
amh_853p	6600169	Titaway	ID	128.762804	-3.67906	[]	
amh_10573p	6600170	Tiworo	ID	122.431684	-4.797186	[]	
amh_485p	6600171	Tjeparra	ID			[]	
amh_1143p	6600172	Tobo	ID	130.206897	-3.55795	[]	
amh_1142p	6600173	Tocujos eiland	BR			[]	
amh_763p	6600174	Tokai	ZA			[]	
amh_660p	6600175	Tolitoli	ID	120.815313	1.039696	[]	
amh_729p	6600176	Tontotte	LK			[]	
amh_1086p	6600177	Torarica meer	SR	-55.01666667	5.316666667	[]	
amh_885p	6600178	Travancore	IN			[]	
amh_396p	6600179	Trincomalee	LK	81.23083333	8.570555556	[]	wd:Q323873
amh_9636p	6600180	Trindade en Martim Vaz	BR	-29.326754	-20.509701	[]	wd:Q241478
amh_9714p	6600181	Trinidad	TT	-61.233562	10.402507	[]	
amh_9638p	6600182	Tristan da Cunha eilanden	ZA	-12.291389	-37.106726	[]	
amh_395p	6600183	Tulbagh	ZA	19.142289	-33.285533	[]	wd:Q1937242
amh_996p	6600184	Tumble Down Dick Bay	BQ;AW;CW;SX	-63.000587	17.500827	[]	
amh_343p	6600185	Tuticorin	IN	78.14666667	8.81	[]	wd:Q41562
amh_827p	6600186	Udupiddi	LK			[]	
amh_828p	6600187	Uduvil	LK			[]	
amh_1113p	6600188	Uijtkijk	SR			[]	
amh_671p	6600189	Ulat	ID	128.71105	-3.600757	[]	
amh_1017p	6600190	Unare rivier	VE			[]	
amh_801p	6600191	Unawatuna	LK			[]	
amh_386p	6600192	Ungaran	ID	110.403813	-7.129741	[]	wd:Q25135332
amh_1751p	6600193	Untung Jawa	ID	106.708811	-5.978165	[]	
amh_829p	6600194	Vaddukoddai	LK			[]	
amh_771p	6600195	Vadodara	IN	73.188801	22.312284	[]	wd:Q11909
amh_980p	6600196	Vaersenbaai	BQ;AW;CW;SX	-69.00454	12.160895	[]	
amh_1057p	6600197	Valdívia	CL	-73.2447187	-39.81747	[]	wd:Q51038
amh_830p	6600198	Vannarponai	LK			[]	
amh_831p	6600199	Varani	LK			[]	
amh_1038p	6600200	Varzea	BR	-34.977171	-8.050094	[]	
amh_792p	6600201	Vembar	LK			[]	
amh_391p	6600202	Vengurla	IN	73.68333333	15.88333333	[]	wd:Q2445434
amh_1148p	6600203	Vergenoegd	ZA			[]	
amh_904p	6600204	Verlaatene S.E. Compagnies post	ID	106.100543	-5.983333333	[]	
amh_1112p	6600205	Victoria	SR	-54.99748	5.146127	[]	
amh_886p	6600206	Vierendepatnam	IN			[]	
amh_1030p	6600207	Vila Velha	BR	-34.858344	-7.808729	[]	
amh_779p	6600208	Vishakapatnam	IN	83.214512	17.692764	[]	wd:Q200016
amh_581p	6600209	Vishoek	ZA	18.429691	-34.136673	[]	wd:Q913974
amh_9907p	6600210	Visschers Kreek	SR	-54.269456	5.89363	[]	
amh_839p	6600211	Visserhoek	ZA			[]	
amh_9905p	6600212	Vlamingo Kreek	SR	-54.236074	5.886243	[]	
amh_1103p	6600213	Vredenburg	SR			[]	
amh_806p	6600214	Vypin	IN			[]	
amh_670p	6600215	Waai	ID	128.320777	-3.565078	[]	
amh_1122p	6600216	Wacogenive rivier, post aan de	GF			[]	
amh_676p	6600217	Waeputih	ID	127.9211	-3.546146	[]	
amh_10574p	6600218	Waisama	ID	126.957308	-3.756193	[]	
amh_465p	6600219	Wajer	ID			[]	wd:Q12523826
amh_10533p	6600220	Wakenaam Island	GY	-58.436411	6.993596	[]	wd:Q25210722
amh_799p	6600221	Walawe	LK			[]	
amh_9836p	6600222	Wana 	SR	-55.8333278	5.35	[]	wd:Q34828188
amh_903p	6600223	Wancan	TW			[]	
amh_9890p	6600224	Wanicka kreek	SR	-55.3392926	5.771843385	[]	
amh_9240p	6600225	Wayamoe, kreek	SR	-54.6666722	5.8166694	[]	wd:Q34846642
amh_744p	6600226	Waynitoe	ID	128.160145	-3.705472	[]	
amh_765p	6600227	Welgelegen	ZA			[]	
amh_9903p	6600228	Welgemoedt	SR	-54.476673	5.747062	[]	
amh_501p	6600229	Weligama	LK	80.428823	5.973757	[]	wd:Q3534843
amh_431p	6600230	Wellington	ZA	19.008307	-33.642277	[]	wd:Q1534385
amh_1327p	6600231	Werinama	ID	130.181115	-3.547902	[]	
amh_1139p	6600232	West End	VG	-64.697592	18.387882	[]	
amh_1145p	6600233	Westpunt 	BQ;AW;CW;SX	-69.154454	12.370353	[]	wd:Q3461992
amh_466p	6600234	Wetar	ID	126.3666667	-7.716666667	[]	wd:Q615657
amh_997p	6600235	White Hook	BQ;AW;CW;SX	-62.96666667	17.46666667	[]	
amh_9913p	6600236	Wia-Wia kust	SR	-54.480711	5.893923	[]	
amh_1123p	6600237	Wiapoco, post aan de	GF			[]	
amh_973p	6600238	Willemstad	BQ;AW;CW;SX	-68.933385	12.105711	[]	
amh_969p	6600239	Wilmington	US	-75.546667	39.745833	[]	wd:Q174224
amh_1073p	6600240	Wironje Kreek, post aan de	GY			[]	
amh_836p	6600241	Witteboomen	ZA			[]	
amh_450p	6600242	Wokam	ID	134.384708	-5.772793	[]	wd:Q24825933
amh_427p	6600243	Worcester	ZA	19.442611	-33.643849	[]	wd:Q1025649
amh_426p	6600244	Wynberg	ZA	18.466802	-34.007775	[]	wd:Q667463
amh_797p	6600245	Yala	LK	81.5	6.366666667	[]	
amh_946p	6600246	Yonkers	US	-73.899243	40.932579	[]	wd:Q128114
amh_369p	6600247	Zaane	ID			[]	
amh_1087p	6600248	Zandpunt	SR			[]	
amh_999p	6600249	Zeelandia Baai	BQ;AW;CW;SX	-62.981606	17.507417	[]	
amh_1094p	6600250	Zeven Provincien	SR			[]	
amh_1147p	6600251	Zuidkant	BQ;AW;CW;SX	-63.06666667	18.01666667	[]	
amh_747p	6600252	onbekend China	CN			[]	
amh_1187p	6600253	onbekend Indonesië	ID			[]	
amh_678p	6600254	onbekend Zuid-Afrika	ZA			[]	
amh_1190p	6600255	Xiamen	CN	118.0908368	24.43683577	[]	
amh_1191p	6600256	Tonga		-175.25987	-21.1781954	[]	
amh_1811p	6600257	Osaka	JP	135.5048292	34.68516855	[]	
amh_1812p	6600258	Edo	JP	139.7632568	35.67972088	[]	
amh_1858p	6600259	Dabul	IN	73.17203907	17.58545792	[]	
amh_2027p	6600260	Matanzas 	CU	-81.5326945	23.05114238	[]	
amh_2218p	6600261	Mexico City	MX	-99.1333494	19.43060799	[]	
amh_2387p	6600262	Rio de Janeiro	BR	-43.178696	-22.916442	[]	
